source_id,source_name,iso3_country,parent_name,mine_type,lat,lon,mine_status,annual_emissions_t_co2e,annual_production_t_ore,carbon_intensity,estimated_revenue_usd,break_even_carbon_price,carbon_cost_pct_revenue_50,carbon_cost_pct_revenue_100,carbon_cost_pct_revenue_150,carbon_cost_pct_revenue_200,underwater_at_50,underwater_at_100,underwater_at_150,underwater_at_200,trend_slope,pct_change_2021_2024,trajectory_category
45944345,Munella Mine,ALB,Beralb ShA,Underground,41.97859,20.062479,Production,22224.000002053275,1481606.0001368856,0.0149999392551056,112602056.0104033,1520.0061555075595,0.9868381088885272,1.9736762177770544,2.9605143266655807,3.9473524355541088,False,False,False,False,-1066.8000000985617,-19.35554104071413,Improving (>10% reduction)
45944349,Lindero Mine,ARG,Fortuna Silver Mines Inc,Open Pit,-25.083149,-67.779393,Production,132441.99999999994,9393018.999999996,0.0141000460022491,713869443.9999998,1617.016000966461,0.927634605411126,1.855269210822252,2.782903816233379,3.710538421644504,False,False,False,False,13717.699999999997,41.74925615942805,Deteriorating (>10% increase)
45944350,Agarak Mine,ARM,GeoProMining Ltd,Open Pit,38.914977,46.184626,Production,52650.00022529284,3509991.015019484,0.015000038461637,266759317.14148077,1519.9961025641023,0.9868446356340185,1.973689271268037,2.960533906902056,3.947378542536074,False,False,False,False,911.8000039016522,-5.645161290322584,Slightly Improving
45944351,Kajaran Mine,ARM,Zangezur Copper-Molybdenum Combine JSC,Open Pit,39.144491,46.139239,Production,956837.0040943688,63789108.27295782,0.0150000059571298,4847972228.744794,1519.999396344414,0.9868424971795962,1.9736849943591923,2.9605274915387882,3.9473699887183846,False,False,False,False,-21471.100091876266,-14.787395291758171,Improving (>10% reduction)
45944352,Kapan Mine,ARM,Gold Mining Co LLC,Underground,39.206026,46.432622,Production,7922.000033898763,528114.0022598348,0.0150005491238634,40136664.171747446,1519.9443574854836,0.986878231833119,1.973756463666238,2.960634695499357,3.9475129273324763,False,False,False,False,-1034.9000044284057,-29.046126287505597,Improving (>10% reduction)
45944354,Ankata Mine,AUS,The Vanguard Group Inc,Underground,-29.723099,135.578769,Production,1729.0,236882.0,0.0072989927474438,18003032.0,3123.7186813186813,0.4801968912792023,0.9603937825584046,1.440590673837607,1.9207875651168091,False,False,False,False,-65.9,-5.104281009879254,Slightly Improving
45944355,Anthill Mine,AUS,Austral Resources Australia Ltd,Open Pit,-20.255397,139.114318,Production,30444.0,1770000.0,0.0172,134520000.0,1325.5813953488373,1.1315789473684212,2.2631578947368425,3.394736842105263,4.526315789473685,False,False,False,False,12590.0,inf,Deteriorating (>10% increase)
45944359,Boddington Mine,AUS,Newmont Corp,Open Pit,-32.753965,116.355515,Production,236689.00000000003,31985000.0,0.0074,2430860000.0,3081.081081081081,0.486842105263158,0.973684210526316,1.460526315789474,1.947368421052632,False,False,False,False,10381.200000000008,12.745555703751704,Deteriorating (>10% increase)
45944361,Cadia East Mine,AUS,,Both,-33.469173,148.997415,Production,87300.0,29100000.0,0.003,2211600000.0,7600.0,0.19736842105263158,0.39473684210526316,0.5921052631578948,0.7894736842105263,False,False,False,False,9593.7,49.20271401958606,Deteriorating (>10% increase)
45944363,Capricorn Mine,AUS,29Metals Ltd,Underground,-19.692055,139.365234,Production,6088.0,491000.0,0.0123991853360488,37316000.0,1838.8304862023654,0.8157358773716369,1.6314717547432738,2.4472076321149108,3.2629435094865475,False,False,False,False,-3195.5,-57.05417607223476,Improving (>10% reduction)
45944364,Carrapateena Mine,AUS,The Vanguard Group Inc,Underground,-31.248309,137.484845,Production,13151.0,1801512.0,0.007299979128643,136914912.0,3123.296601018934,0.48026178477914805,0.9605235695582961,1.4407853543374443,1.9210471391165922,False,False,False,False,-1525.8,-24.536638549377404,Improving (>10% reduction)
45944366,CSA Mine,AUS,Metal Acquisition Corp,Underground,-31.408831,145.80091,Production,20760.0,1207000.0,0.0171996685998343,91732000.0,1325.606936416185,1.131557144725941,2.263114289451882,3.394671434177823,4.526228578903764,False,False,False,False,2402.8,5.268495512397951,Slightly Deteriorating
45944367,Dry River South Mine,AUS,Aurora Metals Ltd,Underground,-18.785454,144.696205,Production,164624.92400938232,9571216.51217339,0.0172,727412454.9251777,1325.5813953488373,1.131578947368421,2.263157894736842,3.3947368421052637,4.526315789473684,False,False,False,False,0.0,0.0,Stable
45944368,Dugald River Mine,AUS,MMG Ltd,Underground,-20.249033,140.156439,Production,17826.0,1650517.0,0.0108002522845871,125439292.0,2111.0617973746216,0.7105429134596837,1.4210858269193674,2.131628740379051,2.8421716538387347,False,False,False,False,1471.7,31.083167879991176,Deteriorating (>10% increase)
45944370,Eloise Mine,AUS,AIC Mines Ltd,Underground,-20.954676,140.980229,Production,46469.0,574400.0,0.080900069637883,43654400.0,281.82917644020745,5.322373002492303,10.644746004984606,15.96711900747691,21.289492009969212,False,False,False,False,14402.2,303.3067175837528,Deteriorating (>10% increase)
45944371,Ernest Henry Mine,AUS,Evolution Mining,Both,-20.439331,140.72374,Production,18720.0,5200000.0,0.0036,395200000.0,6333.333333333333,0.2368421052631579,0.4736842105263158,0.7105263157894737,0.9473684210526316,False,False,False,False,1255.6,31.074079260607757,Deteriorating (>10% increase)
45944373,Golden Grove Mine,AUS,29Metals Ltd,Underground,-28.744488,116.944726,Production,29413.0,1524000.0,0.0192998687664042,115824000.0,1181.3551830823105,1.2697282083160657,2.5394564166321314,3.8091846249481973,5.078912833264263,False,False,False,False,1144.2,15.490026700172766,Deteriorating (>10% increase)
45944374,Hellyer Mine,AUS,NQ Minerals PLC,Underground,-41.578437,145.725572,Production,25800.0,1500000.0,0.0172,114000000.0,1325.5813953488373,1.1315789473684212,2.2631578947368425,3.394736842105263,4.526315789473685,False,False,False,False,2160.0,-0.3861003861003861,Stable
45944375,Hera Mine,AUS,Aurelia Metals Ltd,Underground,-32.114626,146.331968,Production,4851.0,282014.0,0.0172012736956321,21433064.0,1325.483240568955,1.131662743133693,2.263325486267386,3.3949882294010787,4.526650972534772,False,False,False,False,-654.9,-39.903369672943505,Improving (>10% reduction)
45944377,Jaguar Mine,AUS,Aeris Resources Ltd,Underground,-28.430572,121.141006,Production,11634.0,402574.0,0.0288990347116306,30595624.0,788.9536874677668,1.9012522836599117,3.8025045673198234,5.703756850979735,7.605009134639647,False,False,False,False,4467.1,65.04468718967229,Deteriorating (>10% increase)
45944383,Malu Mine,AUS,The Vanguard Group Inc,Both,-29.718778,135.577234,Production,12826.0,1757001.0,0.007299938930029,133532076.0,3123.3138000935596,0.48025914013349125,0.9605182802669825,1.4407774204004737,1.921036560533965,False,False,False,False,-487.9,-5.069943009399748,Slightly Improving
45944384,Miitel Mine,AUS,,Underground,-31.584689,121.646129,Production,5279.0,306917.0,0.0172000899265925,23325692.000000004,1325.5744648607692,1.1315848635916137,2.2631697271832274,3.3947545907748413,4.526339454366455,False,False,False,False,2116.1,328.14274128142745,Deteriorating (>10% increase)
45944386,Mount Carlton Mine,AUS,Navarre Minerals Ltd,Open Pit,-20.26859,147.570405,Production,2477.0,144000.0,0.0172013888888888,10944000.0,1325.4743641501816,1.1316703216374269,2.2633406432748537,3.395010964912281,4.5266812865497075,False,False,False,False,-3377.8,-75.64883995281164,Improving (>10% reduction)
45944387,Mount Colin Mine,AUS,Aeris Resources Ltd,Both,-20.77794,140.0478,Production,9247.0,426135.0,0.0216996961056942,32386260.0,1050.7059586893047,1.4276115859009346,2.8552231718018692,4.282834757702804,5.7104463436037385,False,False,False,False,791.1,6.348476135710178,Slightly Deteriorating
45944392,Northparkes Mine,AUS,CMOC Group Ltd,Underground,-32.915411,148.052171,Production,20987.0,6770000.0,0.0031,514520000.0,7354.8387096774195,0.20394736842105263,0.40789473684210525,0.6118421052631579,0.8157894736842105,False,False,False,False,-10133.7,-76.16955080165326,Improving (>10% reduction)
45944393,Nova Mine,AUS,IGO Ltd,Underground,-31.81068,123.172453,Production,111007.0,1500101.0,0.0739996840212759,114007676.00000001,308.1094237300351,4.868400264557624,9.736800529115248,14.605200793672873,19.473601058230496,False,False,False,False,18646.3,75.4191621497764,Deteriorating (>10% increase)
45944394,Olympic Dam Mine,AUS,The Vanguard Group Inc,Both,-30.446151,136.869194,Production,68248.0,9349000.0,0.0073000320889934,710524000.0,3123.2739420935413,0.4802652690127286,0.9605305380254572,1.4407958070381859,1.9210610760509144,False,False,False,False,12551.5,111.91740412979352,Deteriorating (>10% increase)
45944396,Peak Mine,AUS,Aurelia Metals Ltd,Underground,-31.564875,145.876788,Production,8499.0,494125.0,0.0172001011889704,37553500.0,1325.5735968937522,1.1315856045375265,2.263171209075053,3.3947568136125796,4.526342418150106,False,False,False,False,-294.6,-24.352469959946596,Improving (>10% reduction)
45944398,Renison Mine,AUS,Metals X Ltd,Underground,-41.7945,145.443288,Production,10370.0,779673.0,0.0133004477518139,59255148.0,1714.2280038572806,0.8750294573561777,1.7500589147123553,2.625088372068533,3.5001178294247106,False,False,False,False,-2131.0,-42.38568809378299,Improving (>10% reduction)
45944400,Rocklands Mine,AUS,Copper Resources Australia Pty Ltd,Open Pit,-20.672853,140.366974,Production,14515.0,843908.0,0.0171997421519881,64137008.0,1325.601267654151,1.1315619836834296,2.2631239673668593,3.394685951050289,4.526247934733719,False,False,False,False,903.0,-7.026646169613119,Slightly Improving
45944401,Rosebery Mine,AUS,MMG Ltd,Underground,-41.775349,145.53924,Production,15771.0,922275.0,0.0171001057168415,70092900.0,1333.3250903557162,1.1250069550553623,2.2500139101107246,3.375020865166087,4.500027820221449,False,False,False,False,250.2,4.00976060146409,Slightly Deteriorating
45944402,Savannah Mine,AUS,Panoramic Resources Ltd,Underground,-17.350955,128.025524,Production,11704.0,680438.0,0.0172006854408483,51713288.0,1325.5285714285712,1.1316240421610786,2.263248084322157,3.3948721264832358,4.526496168644314,False,False,False,False,5026.8,inf,Deteriorating (>10% increase)
45944408,Broken Hill Operation,AUS,Shenzhen Zhongjin Lingnan Nonfemet Co Ltd,Underground,-31.953448,141.489051,Production,13374.0,297206.0,0.0449990915392017,22587656.0,506.6768954688201,2.960466548631695,5.92093309726339,8.881399645895085,11.84186619452678,False,False,False,False,-552.7,-5.856680275939744,Slightly Improving
45944409,Deflector Operation,AUS,Silver Lake Resources Ltd,Underground,-28.662919,116.373818,Production,105373.0,1065446.0,0.0989003666070359,80973896.0,230.53504028546212,6.506603066252363,13.013206132504726,19.51980919875709,26.02641226500945,False,False,False,False,24060.0,104.59187635911773,Deteriorating (>10% increase)
45944410,DeGrussa Operation,AUS,Sandfire Resources Ltd,Underground,-25.538392,119.322244,Production,3096.0,448706.0,0.0068998408757627,34101656.0,3304.4240310077516,0.45393689972123347,0.9078737994424669,1.3618106991637005,1.8157475988849339,False,False,False,False,-29228.0,-96.4114749348015,Improving (>10% reduction)
45944411,Mount Isa Operation,AUS,Government of Qatar,Both,-20.722612,139.477051,Production,204750.0,4500000.0,0.0455,342000000.0,501.0989010989011,2.9934210526315788,5.9868421052631575,8.980263157894736,11.973684210526315,False,False,False,False,13186.9,2.786144578313253,Slightly Deteriorating
45944412,Telfer Operation,AUS,Newmont Corp,Both,-21.717994,122.195401,Production,111690.0,15300000.0,0.0073,1162800000.0,3123.2876712328766,0.48026315789473684,0.9605263157894737,1.4407894736842106,1.9210526315789473,False,False,False,False,-16741.0,-31.975150739996344,Improving (>10% reduction)
45944414,Tritton Operation,AUS,Aeris Resources Ltd,Underground,-31.257971,146.872871,Production,23827.0,1369364.0,0.0174000484896638,104071664.0,1310.341175976833,1.1447400322147245,2.289480064429449,3.4342200966441743,4.578960128858898,False,False,False,False,-1633.6,-20.31103678929766,Improving (>10% reduction)
45944416,Gedabek Mine,AZE,Anglo Asian Mining PLC,Both,40.588113,45.783057,Production,23493.000100528105,1566197.0067018608,0.0150000287320177,119030972.50934142,1519.997088494445,0.9868439955274835,1.973687991054967,2.9605319865824504,3.947375982109934,False,False,False,False,-5907.500025278583,-42.07697428437584,Improving (>10% reduction)
45944418,Corina Mine,BOL,,Open Pit,-21.67881,-67.896626,Production,2242.438110186384,226508.9000188266,0.0099,17214676.401430823,2303.030303030302,0.6513157894736844,1.3026315789473688,1.9539473684210533,2.6052631578947376,False,False,False,False,0.0,0.0,Stable
45944419,Coro Coro Mine,BOL,Corporacion Minera de Bolivia,Open Pit,-17.167156,-68.453363,Production,3500.999999999998,248298.99999999988,0.0140999359643011,18870723.999999993,1617.0286203941732,0.9276273660724411,1.8552547321448822,2.782882098217323,3.7105094642897645,False,False,False,False,260.7999999999997,28.194800439399458,Deteriorating (>10% increase)
45944421,San Vicente Mine,BOL,Pan American Silver Corp,Underground,-21.270992,-66.317115,Production,3622.999999999999,365999.9999999999,0.0098989071038251,27815999.999999993,2303.284570797681,0.6512438884095485,1.3024877768190968,1.9537316652286456,2.6049755536381936,False,False,False,False,-4.799999999999864,0.6388888888889017,Stable
45944423,Khoemacau Mine,BWA,Cupric Canyon Capital LLC,Underground,-20.551927,22.958413,Production,117200.0,10558562.999999998,0.011099995330804,802450787.9999999,2054.054918088737,0.7302628507107902,1.4605257014215804,2.1907885521323704,2.9210514028431613,False,False,False,False,26713.099999999995,inf,Deteriorating (>10% increase)
45944424,Motheo Mine,BWA,Sandfire Resources Ltd,Open Pit,-21.327812,22.320358,Production,68311.0,6154184.999999999,0.0110999263103075,467718059.99999994,2054.067690415892,0.7302583098886539,1.4605166197773078,2.1907749296659618,2.9210332395546157,False,False,False,False,26770.6,inf,Deteriorating (>10% increase)
45944431,Aripuana Mine,BRA,Nexa Resources,Underground,-10.063918,-59.511692,Production,5704.0,722000.0,0.0079002770083102,54872000.0,2885.974754558205,0.5197550663362006,1.0395101326724012,1.559265199008602,2.0790202653448024,False,False,False,False,2137.2,inf,Deteriorating (>10% increase)
45944433,Chapada Mine,BRA,Lundin Mining Corp,Open Pit,-14.242481,-49.393779,Production,97376.0,29508000.0,0.003299986444354,2242608000.0,6909.119290174171,0.21710437133908378,0.43420874267816756,0.6513131140172513,0.8684174853563351,False,False,False,False,-3802.0,-12.965445737473411,Improving (>10% reduction)
45944434,Palito Mine,BRA,Serabi Gold PLC,Underground,-6.320864,-55.789186,Production,13767.0,177870.0,0.0773992241524709,13518120.0,294.57659620832425,5.092054220557297,10.184108441114594,15.276162661671888,20.368216882229188,False,False,False,False,11.1,4.334975369458128,Slightly Deteriorating
45944435,Pedra Branca Mine,BRA,The Vanguard Group Inc,Both,-6.577824,-50.03789,Production,4075.0,373846.0,0.0109002102470001,28412296.0,2091.7027730061345,0.717119095197375,1.43423819039475,2.151357285592125,2.8684763807895,False,False,False,False,117.2,70.50209205020921,Deteriorating (>10% increase)
45944437,Salobo Mine,BRA,Government of Brazil,Open Pit,-5.796306,-50.532072,Production,264784.0,49034000.0,0.0054000081576049,3726584000.0,4222.215843857635,0.3552636945792715,0.710527389158543,1.0657910837378146,1.421054778317086,False,False,False,False,24785.4,37.08865740261354,Deteriorating (>10% increase)
45944438,Santa Rita Mine,BRA,Century Mining SA,Open Pit,-14.19166,-39.710393,Production,131340.0,6600000.0,0.0199,501600000.0,1145.7286432160804,1.3092105263157894,2.6184210526315788,3.9276315789473686,5.2368421052631575,False,False,False,False,13710.0,69.95341614906833,Deteriorating (>10% increase)
45944439,Serrote Mine,BRA,Mineração Vale Verde SA,Open Pit,-9.670332,-36.736257,Production,79600.0,4000000.0,0.0199,304000000.0,1145.7286432160804,1.3092105263157894,2.6184210526315788,3.9276315789473686,5.2368421052631575,False,False,False,False,12424.0,140.33816425120773,Deteriorating (>10% increase)
45944440,Sossego Mine,BRA,BNYM AS AGT/ CLTS 10 Percent,Open Pit,-6.420101,-50.065305,Production,64489.0,11942498.0,0.0053999590370456,907629848.0,4222.254251112592,0.3552604629635318,0.7105209259270636,1.0657813888905954,1.4210418518541272,False,False,False,False,-4161.0,-18.57860714105348,Improving (>10% reduction)
45944443,Caraiba Operation,BRA,Ero Copper Corp,Both,-9.870383,-39.871251,Production,43435.0,3341121.0,0.0130001278014175,253925196.0,1753.8289121676066,0.8552715658827333,1.7105431317654667,2.5658146976482,3.4210862635309334,False,False,False,False,4194.6,43.50138760407031,Deteriorating (>10% increase)
45944444,Chelopech Mine,BGR,Dundee Precious Metals Inc,Underground,42.695128,24.073778,Production,9926.000000917064,2205752.000203789,0.0045000525897743,167637152.01548797,5066.607455168244,0.29605609143252454,0.5921121828650491,0.8881682742975736,1.1842243657300981,False,False,False,False,-162.40000001500394,-4.300038565368296,Slightly Improving
45944452,Coleman Mine,CAN,Government of Brazil,Underground,46.674583,-81.34308,Production,4660.0000199404485,863000.0036928342,0.0053997682502896,65588000.2806554,4222.403433476396,0.3552479112032689,0.7104958224065377,1.0657437336098066,1.4209916448130753,False,False,False,False,390.6000016714032,43.20835894283958,Deteriorating (>10% increase)
45944453,Copper Cliff Mine,CAN,Government of Brazil,Underground,46.481134,-81.056483,Production,5319.000022760353,985000.0042148804,0.0053999999999999,74860000.3203309,4222.222222222222,0.35526315789473684,0.7105263157894737,1.0657894736842104,1.4210526315789473,False,False,False,False,982.6000042046104,131.9668556476232,Deteriorating (>10% increase)
45944454,Copper Mountain Mine,CAN,Hudbay Minerals Inc,Open Pit,49.331253,-120.521629,Production,104940.0004490452,14575000.06236739,0.0072,1107700004.7399218,3166.666666666667,0.4736842105263157,0.9473684210526314,1.4210526315789471,1.8947368421052628,False,False,False,False,1997.1000085457229,13.854833459911037,Deteriorating (>10% increase)
45944455,Creighton Mine,CAN,Resona Bank Ltd,Underground,46.462958,-81.176038,Production,2192.000009379713,406000.0017373009,0.0053990147783251,30856000.13203487,4222.9927007299275,0.3551983406792843,0.7103966813585686,1.065595022037853,1.4207933627171372,False,False,False,False,148.50000063544127,35.55967841682126,Deteriorating (>10% increase)
45944458,Garson Mine,CAN,Government of Brazil,Underground,46.56758,-80.857509,Production,3510.0000150195224,650000.002781393,0.0054,49400000.21138587,4222.222222222222,0.35526315789473684,0.7105263157894737,1.0657894736842106,1.4210526315789473,False,False,False,False,445.80000190760774,74.71378795420608,Deteriorating (>10% increase)
45944459,Gibraltar Mine,CAN,Taseko Mines Ltd,Open Pit,52.519137,-122.26926,Production,114530.00049008144,88100000.37698573,0.0013,6695600028.650915,17538.46153846154,0.0855263157894737,0.1710526315789474,0.2565789473684211,0.3421052631578948,False,False,False,False,3536.0000151307804,8.662239089184062,Slightly Deteriorating
45944464,Highland Valley Mine,CAN,Fullbloom Investment Corp,Open Pit,50.486244,-121.042759,Production,72886.00031188402,72886000.31188402,0.001,5539336023.703185,22799.999999999996,0.06578947368421054,0.13157894736842107,0.19736842105263158,0.26315789473684215,False,False,False,False,-4000.300017117546,-12.650703482658605,Improving (>10% reduction)
45944470,Kidd Creek Mine,CAN,Qatar Investment Authority,Underground,48.689104,-81.371982,Production,61425.00026284164,1350000.0057767394,0.0455,102600000.4390322,501.0989010989011,2.9934210526315788,5.9868421052631575,8.980263157894738,11.973684210526315,False,False,False,False,8002.600034243655,28.48268072289157,Deteriorating (>10% increase)
45944471,Lac des Iles Mine,CAN,Impala Platinum Holdings Corp,Both,49.164166,-89.622449,Production,61148.00026165634,3798000.0162518937,0.0161000526592943,288648001.2351439,1416.1444364492704,1.0592139907430504,2.118427981486101,3.1776419722291513,4.236855962972202,False,False,False,False,-1281.6000054840522,0.47982121729985255,Stable
45944473,Lalor Mine,CAN,Hudbay Minerals Inc,Underground,54.873524,-100.149518,Production,25038.00010713926,1526729.0065329743,0.0163997670837457,116031404.49650605,1390.2636472561705,1.0789320449832704,2.157864089966541,3.2367961349498113,4.315728179933082,False,False,False,False,-818.3000035015593,-13.171036204744063,Improving (>10% reduction)
45944475,LaRonde Mine,CAN,Agnico Eagle Mines Ltd,Underground,48.249139,-78.441434,Production,46546.00019917342,1501481.0064249367,0.0310000592748093,114112556.4882952,735.4824646586173,2.0394775838690355,4.078955167738071,6.118432751607106,8.157910335476142,False,False,False,False,3670.200015705029,29.915150161884558,Deteriorating (>10% increase)
45944479,McCreedy West Mine,CAN,Government of Poland,Underground,46.637729,-81.398089,Production,6758.00002891793,527971.0022592229,0.0127999454515494,40125796.17170094,1781.2575910032551,0.8421016744440408,1.6842033488880817,2.526305023332123,3.3684066977761633,False,False,False,False,1609.0000068850177,146.46243617797228,Deteriorating (>10% increase)
45944481,Minto Mine,CAN,Copper Holdings LLC,Both,62.61756,-137.256469,Production,13561.000058028416,904066.0038685584,0.0150000110611393,68709016.29401045,1519.998879138707,0.9868428329696933,1.9736856659393867,2.9605284989090794,3.9473713318787733,False,False,False,False,1327.400005680032,30.369159776965954,Deteriorating (>10% increase)
45944483,Mount Milligan Mine,CAN,Centerra Gold Inc,Open Pit,55.120089,-124.019136,Production,76601.00032778076,21278000.09104997,0.0036000093993796,1617128006.9197977,6333.316797430842,0.23684272364339745,0.4736854472867949,0.7105281709301923,0.9473708945735898,False,False,False,False,1364.5000058387873,10.01622933632068,Deteriorating (>10% increase)
45944484,Mount Polley Mine,CAN,Imperial Metals Corp,Both,52.548922,-121.634586,Production,89224.0003817954,5948239.025452908,0.0150000697685483,452066165.934421,1519.992930153322,0.9868466952992306,1.9736933905984613,2.960540085897692,3.9473867811969225,False,False,False,False,34231.10014647715,inf,Deteriorating (>10% increase)
45944485,Myra Falls Mine,CAN,Farringford Foundation,Underground,49.57067,-125.591966,Production,675.0000028883696,45000.00019255798,0.015,3420000.014634406,1520.0,0.9868421052631579,1.9736842105263157,2.9605263157894735,3.9473684210526314,False,False,False,False,59.400000254176504,24.999999999999982,Deteriorating (>10% increase)
45944486,New Afton Mine,CAN,New Gold Inc,Underground,50.662968,-120.520252,Production,22747.00009733592,2993000.0128072454,0.007600066822586,227468000.97335067,2999.973622895327,0.5000043962227654,1.0000087924455308,1.500013188668296,2.0000175848910615,False,False,False,False,364.5000015597194,13.084762614963955,Deteriorating (>10% increase)
45944494,Red Chris Mine,CAN,Newmont Corp,Open Pit,57.713205,-129.794095,Production,102627.00043914773,6887709.029472963,0.0149000197307987,523465886.23994523,1530.1993159694819,0.9802644559736007,1.9605289119472014,2.9407933679208025,3.9210578238944027,False,False,False,False,728.2000031160162,8.609194429158025,Slightly Deteriorating
45944501,Thompson Mine,CAN,Government of Brazil,Underground,55.71406,-97.852724,Production,3683.000015759801,682000.0029183232,0.0054002932551319,51832000.221792564,4221.992940537605,0.35528245099552397,0.7105649019910479,1.065847352986572,1.4211298039820959,False,False,False,False,167.50000071674359,16.366508688783572,Deteriorating (>10% increase)
45944502,Totten Mine,CAN,Entidades De Previdencia,Underground,46.38187,-81.453631,Production,2797.0000119685483,518000.00221655634,0.0053996138996138,39368000.16845828,4222.5241329996425,0.355237756553546,0.710475513107092,1.065713269660638,1.420951026214184,False,False,False,False,493.1000021100076,123.04625199362044,Deteriorating (>10% increase)
45944504,Voisey's Bay Mine,CAN,Government of Brazil,Both,56.331334,-62.096044,Production,9504.000040668245,1760000.0075311563,0.0053999999999999,133760000.57236788,4222.222222222222,0.35526315789473684,0.7105263157894737,1.0657894736842108,1.4210526315789473,False,False,False,False,-189.1000008091716,-5.891672442816125,Slightly Improving
45944506,Nunavik Nickel Operation,CAN,Canadian Royalities Inc,Both,61.556721,-73.449743,Production,66984.0446807084,5628911.317706587,0.0119,427797260.1457006,1915.9663865546215,0.7828947368421055,1.565789473684211,2.3486842105263164,3.131578947368422,False,False,False,False,0.0,0.0,Stable
45944507,Raglan Operation,CAN,Qatar Investment Authority,Underground,61.687773,-73.678676,Production,31162.000133344263,684879.0029306426,0.0455000080306156,52050804.22272884,501.09881265644054,2.993421580961554,5.986843161923108,8.980264742884664,11.973686323846216,False,False,False,False,-4217.700018047817,-28.35004138692173,Improving (>10% reduction)
45944508,Sudbury INO Operation,CAN,Qatar Investment Authority,Underground,46.657829,-80.79658,Production,65141.00027874266,1431680.0061262536,0.0454996926687527,108807680.46559528,501.1022858107797,2.9934008334705786,5.986801666941157,8.980202500411737,11.973603333882314,False,False,False,False,3706.8000158616437,5.448806151355732,Slightly Deteriorating
45944509,Aguilucho de Taltal Mine,CHL,Grupo Minero Las Cenizas SA,Open Pit,-25.780354,-69.848935,Production,7518.0,389544.0,0.019299488632863,29605344.0,1181.3784517158817,1.269703199530463,2.539406399060926,3.8091095985913896,5.078812798121852,False,False,False,False,1991.6,278.7405541561713,Deteriorating (>10% increase)
45944511,Altamira Mine,CHL,Grupo Minero Las Cenizas SA,Underground,-25.838394,-69.858302,Production,6948.0,360000.0,0.0193,27360000.0,1181.3471502590673,1.269736842105263,2.539473684210526,3.8092105263157894,5.078947368421052,False,False,False,False,1332.0,124.4186046511628,Deteriorating (>10% increase)
45944512,Andina Mine,CHL,Codelco Corp,Both,-33.146647,-70.25817,Production,130389.0,16097399.0,0.0081000042304971,1223402324.0,2814.813344683984,0.5328950151642838,1.0657900303285677,1.5986850454928512,2.1315800606571353,False,False,False,False,-703.7,10.600380008821633,Deteriorating (>10% increase)
45944513,Angelica Mine,CHL,,Open Pit,-22.161997,-70.14101,Production,136144.86221768707,16603031.977766711,0.0082,1261830430.31027,2780.487804878048,0.5394736842105264,1.078947368421053,1.6184210526315794,2.1578947368421053,False,False,False,False,0.0,0.0,Stable
45944514,Antucoya Mine,CHL,Antofagasta PLC,Open Pit,-22.634167,-69.875227,Production,249010.0,32339000.0,0.0076999907232753,2457764000.0,2961.0425284125135,0.5065783370575856,1.0131566741151712,1.519735011172757,2.0263133482303424,False,False,False,False,27809.6,50.550181378476424,Deteriorating (>10% increase)
45944517,Barreal Seco Mine,CHL,Grupo Minero Las Cenizas SA,Open Pit,-25.932071,-70.056502,Production,84049.0,4354881.0,0.0192999533167496,330970956.0,1181.3500077335839,1.2697337708387924,2.5394675416775847,3.809201312516377,5.078935083355169,False,False,False,False,27560.3,1076.4977603583427,Deteriorating (>10% increase)
45944519,Boton de Oro Mine,CHL,,Underground,-27.525063,-70.391705,Production,136144.86221768707,16603031.977766711,0.0082,1261830430.31027,2780.487804878048,0.5394736842105264,1.078947368421053,1.6184210526315794,2.1578947368421053,False,False,False,False,0.0,0.0,Stable
45944521,Candelaria Mine,CHL,,Both,-27.51798,-70.288975,Production,276607.0,23641614.0,0.011700004915062,1796762664.0,1948.7171300798602,0.7697371654646092,1.5394743309292185,2.3092114963938277,3.078948661858437,False,False,False,False,4097.8,2.1262848534971646,Slightly Deteriorating
45944526,Carmen de Andacollo Mine,CHL,Fullbloom Investment Corp,Open Pit,-30.255499,-71.091261,Production,16240.0,16240000.0,0.001,1234240000.0,22800.0,0.06578947368421052,0.13157894736842105,0.19736842105263158,0.2631578947368421,False,False,False,False,-576.9,-7.401071958033984,Slightly Improving
45944527,Carmen-Margarita Mine,CHL,,Underground,-32.495733,-71.06626,Production,136144.86221768707,16603031.977766711,0.0082,1261830430.31027,2780.487804878048,0.5394736842105264,1.078947368421053,1.6184210526315794,2.1578947368421053,False,False,False,False,0.0,0.0,Stable
45944532,Caserones Mine,CHL,Lundin Mining Corp,Open Pit,-28.173758,-69.539548,Production,255212.0,41163239.0,0.00619999801279,3128406164.0,3677.4205335172323,0.40789460610460554,0.8157892122092111,1.2236838183138166,1.6315784244184222,False,False,False,False,-59302.6,-23.749028981177172,Improving (>10% reduction)
45944533,Centinela Mine,CHL,,Open Pit,-22.963979,-69.068291,Production,429412.0,60480500.0,0.0071000074404146,4596518000.0,3211.264240403156,0.46710575265886045,0.9342115053177209,1.4013172579765814,1.8684230106354418,False,False,False,False,31212.2,26.70272311773228,Deteriorating (>10% increase)
45944534,Cerro Colorado Mine,CHL,The Vanguard Group Inc,Open Pit,-20.057236,-69.262962,Production,888.0,317000.0,0.0028012618296529,24092000.0,8139.189189189189,0.18429354142453927,0.36858708284907854,0.5528806242736178,0.7371741656981571,False,False,False,False,-12905.6,-97.81496062992126,Improving (>10% reduction)
45944535,Cerro Negro Mine,CHL,Compañía Minera Cerro Negro SA,Open Pit,-32.577493,-70.856829,Production,115648.0,5992127.0,0.0192999914721433,455401652.00000006,1181.347672246818,1.2697362810620634,2.5394725621241268,3.8092088431861897,5.0789451242482535,False,False,False,False,25345.8,162.48439592364784,Deteriorating (>10% increase)
45944536,Chacota Mine,CHL,,Underground,-18.91543,-70.224565,Production,136144.86221768707,16603031.977766711,0.0082,1261830430.31027,2780.487804878048,0.5394736842105264,1.078947368421053,1.6184210526315794,2.1578947368421053,False,False,False,False,0.0,0.0,Stable
45944538,Chuquicamata Mine,CHL,Codelco Corp,Both,-22.304922,-68.929951,Production,356772.0,37954483.0,0.0093999963061017,2884540708.0,2425.5328680501834,0.6184208096119543,1.2368416192239087,1.8552624288358628,2.4736832384478173,False,False,False,False,-21172.1,-7.39232344627269,Slightly Improving
45944539,Collahuasi Mine,CHL,The Vanguard Group Inc,Open Pit,-20.967632,-68.713539,Production,302888.0,60577500.0,0.0050000082538896,4603890000.0,4559.99247246507,0.32894791144010826,0.6578958228802165,0.9868437343203248,1.315791645760433,False,False,False,False,-2927.1,-4.6130202559709765,Slightly Improving
45944544,Don Jaime Mine,CHL,,Underground,-32.536847,-71.003669,Production,136144.86221768707,16603031.977766711,0.0082,1261830430.31027,2780.487804878048,0.5394736842105264,1.078947368421053,1.6184210526315794,2.1578947368421053,False,False,False,False,0.0,0.0,Stable
45944545,Doña Elba Mine,CHL,Grupo Minero Las Cenizas SA,Open Pit,-25.611522,-70.396136,Production,4326.0,224153.0,0.0192993178766289,17035628.0,1181.3889042995838,1.2696919655676915,2.539383931135383,3.8090758967030744,5.078767862270766,False,False,False,False,-3403.0,-62.90198096218164,Improving (>10% reduction)
45944546,Dos Amigos Mine,CHL,CEMIN Holding Minero Group,Open Pit,-28.98782,-70.879261,Production,136144.86221768707,16603031.977766711,0.0082,1261830430.31027,2780.487804878048,0.5394736842105264,1.078947368421053,1.6184210526315794,2.1578947368421053,False,False,False,False,0.0,0.0,Stable
45944548,El Abra Mine,CHL,FreePort-McMoran Inc,Open Pit,-21.922863,-68.834001,Production,95325.0,34044562.0,0.0028000066501075,2587386712.0,8142.837803304485,0.18421096382286747,0.36842192764573495,0.5526328914686024,0.7368438552914699,False,False,False,False,10421.3,52.021369906706006,Deteriorating (>10% increase)
45944550,El Bronce Mine,CHL,Compañía Minera El Bronce SA,Underground,-32.191831,-70.940061,Production,136144.86221768707,16603031.977766711,0.0082,1261830430.31027,2780.487804878048,0.5394736842105264,1.078947368421053,1.6184210526315794,2.1578947368421053,False,False,False,False,0.0,0.0,Stable
45944554,El Ingles Mine,CHL,Compañía Minera El Inglés SA,Underground,-34.07332,-70.866584,Production,136144.86221768707,16603031.977766711,0.0082,1261830430.31027,2780.487804878048,0.5394736842105264,1.078947368421053,1.6184210526315794,2.1578947368421053,False,False,False,False,0.0,0.0,Stable
45944555,El Salvador Mine,CHL,Codelco Corp,Both,-26.24631,-69.563007,Production,216433.0,720242.0,0.3005003873698007,54738392.0,75.87344628591758,19.76976232696057,39.53952465392114,59.309286980881716,79.07904930784228,False,True,True,True,34713.00000000001,102.37785777736221,Deteriorating (>10% increase)
45944556,El Sauce Mine,CHL,,Underground,-32.455238,-71.064581,Production,136144.86221768707,16603031.977766711,0.0082,1261830430.31027,2780.487804878048,0.5394736842105264,1.078947368421053,1.6184210526315794,2.1578947368421053,False,False,False,False,0.0,0.0,Stable
45944557,El Soldado Mine,CHL,The Vanguard Group Inc,Open Pit,-32.649972,-71.110448,Production,46703.0,7656200.0,0.0061000235103576,581871200.0,3737.6905123867846,0.401317336207738,0.802634672415476,1.2039520086232143,1.605269344830952,False,False,False,False,398.8,2.147809540473743,Slightly Deteriorating
45944558,El Teniente Mine,CHL,Codelco Corp,Both,-34.094283,-70.350479,Production,125736.0,38101693.0,0.0033000108420379,2895728668.0,6909.068209581981,0.21710597644986263,0.43421195289972525,0.6513179293495878,0.8684239057994505,False,False,False,False,-21876.1,5.221932114882506,Slightly Deteriorating
45944560,Emilia Mine,CHL,Minera Cruz Ltda,Underground,-30.675912,-71.211465,Production,136144.86221768707,16603031.977766711,0.0082,1261830430.31027,2780.487804878048,0.5394736842105264,1.078947368421053,1.6184210526315794,2.1578947368421053,False,False,False,False,0.0,0.0,Stable
45944562,Encuentro Mine,CHL,,Open Pit,-23.0794,-69.096839,Production,114633.0,16145454.0,0.0071000171317573,1227054504.0,3211.2598571092094,0.4671063902471931,0.9342127804943862,1.4013191707415793,1.8684255609887723,False,False,False,False,2576.1000000000013,14.49217462521099,Deteriorating (>10% increase)
45944563,Escondida Mine,CHL,Blackrock Advisors LLC,Open Pit,-24.269995,-69.073414,Production,392592.0,130864000.0,0.003,9945664000.0,7600.0,0.19736842105263158,0.39473684210526316,0.5921052631578948,0.7894736842105263,False,False,False,False,19183.3,20.447684264781678,Deteriorating (>10% increase)
45944564,Farellon Mine,CHL,Altiplano Metals Inc,Underground,-30.194025,-71.206972,Production,593.0,30744.0,0.0192883164194639,2336544.0,1182.062731871838,1.26896818549105,2.5379363709821,3.80690455647315,5.0758727419642,False,False,False,False,67.8,61.58038147138964,Deteriorating (>10% increase)
45944565,Filomena Mine,CHL,Grupo Minero Las Cenizas SA,Open Pit,-25.580774,-70.224598,Production,1012.0,52452.0,0.019293830549836,3986352.0,1181.7249011857707,1.2693309572260554,2.5386619144521108,3.807992871678166,5.0773238289042215,False,False,False,False,-1023.5,-72.41003271537623,Improving (>10% reduction)
45944566,Flor de Lirio Mine,CHL,Grupo Minero Las Cenizas SA,Underground,-26.044932,-70.135442,Production,136144.86221768707,16603031.977766711,0.0082,1261830430.31027,2780.487804878048,0.5394736842105264,1.078947368421053,1.6184210526315794,2.1578947368421053,False,False,False,False,0.0,0.0,Stable
45944569,Franke Mine,CHL,Grupo Minera Las Cenizas SA,Open Pit,-25.82972,-69.866728,Production,58700.0,3041455.0,0.0192999732036147,231150580.0,1181.348790459966,1.2697350791851787,2.5394701583703574,3.8092052375555365,5.078940316740715,False,False,False,False,12888.2,151.3703323055841,Deteriorating (>10% increase)
45944570,Gabriela Mistral Mine,CHL,Codelco Corp,Open Pit,-23.40802,-68.818133,Production,117126.0,36601942.0,0.0031999941423873,2781747592.0,7125.013042364633,0.21052593042021764,0.4210518608404353,0.6315777912606529,0.8421037216808706,False,False,False,False,902.3,2.661057060215619,Slightly Deteriorating
45944572,Granate Mine,CHL,Sociedad Punta del Cobre SA,Underground,-27.482887,-70.282147,Production,136144.86221768707,16603031.977766711,0.0082,1261830430.31027,2780.487804878048,0.5394736842105264,1.078947368421053,1.6184210526315794,2.1578947368421053,False,False,False,False,0.0,0.0,Stable
45944574,Jilguero Mine,CHL,Minera Jilguero SA,Open Pit,-27.450019,-70.222645,Production,33339.0,1727422.0,0.0192998584017107,131284072.0,1181.3558175110231,1.2697275264283392,2.5394550528566784,3.8091825792850176,5.078910105713357,False,False,False,False,5331.6,80.46443650535889,Deteriorating (>10% increase)
45944575,Juana Mine,CHL,Minera Cruz Ltda,Underground,-30.670732,-71.205259,Production,136144.86221768707,16603031.977766711,0.0082,1261830430.31027,2780.487804878048,0.5394736842105264,1.078947368421053,1.6184210526315794,2.1578947368421053,False,False,False,False,0.0,0.0,Stable
45944578,La Reina Mine,CHL,Haldeman Mining SA,Open Pit,-22.601698,-70.111592,Production,136144.86221768707,16603031.977766711,0.0082,1261830430.31027,2780.487804878048,0.5394736842105264,1.078947368421053,1.6184210526315794,2.1578947368421053,False,False,False,False,0.0,0.0,Stable
45944580,Las Loas Mine,CHL,Compañía Minera e Inmobiliaria Dragones SpA,Open Pit,-30.209149,-71.102068,Production,136144.86221768707,16603031.977766711,0.0082,1261830430.31027,2780.487804878048,0.5394736842105264,1.078947368421053,1.6184210526315794,2.1578947368421053,False,False,False,False,0.0,0.0,Stable
45944581,Las Luces Mine,CHL,Grupo Minero Las Cenizas SA,Underground,-25.697864,-70.499905,Production,136144.86221768707,16603031.977766711,0.0082,1261830430.31027,2780.487804878048,0.5394736842105264,1.078947368421053,1.6184210526315794,2.1578947368421053,False,False,False,False,0.0,0.0,Stable
45944583,Lomas Bayas Mine,CHL,Glencore PLC,Open Pit,-23.431866,-69.512543,Production,1038655.0,22827575.0,0.0455000147847504,1734895700.0,501.09873827209225,2.99342202531253,5.98684405062506,8.98026607593759,11.97368810125012,False,False,False,False,205931.8,98.02273728201207,Deteriorating (>10% increase)
45944584,Los Bronces Mine,CHL,Blackrock Advisors LLC,Open Pit,-33.153809,-70.290552,Production,307625.0,50430300.0,0.0061000033709892,3832702800.0,3737.702852498984,0.40131601124929384,0.8026320224985877,1.2039480337478816,1.6052640449971753,False,False,False,False,-5763.1,-5.0563566331695515,Slightly Improving
45944585,Los Pelambres Mine,CHL,Antofagasta PLC,Open Pit,-31.715212,-70.486884,Production,278130.0,55626000.0,0.005,4227576000.0,4560.0,0.3289473684210526,0.6578947368421052,0.9868421052631579,1.3157894736842104,False,False,False,False,17602.399999999998,22.508038585209004,Deteriorating (>10% increase)
45944587,Los Salmones Mine,CHL,,Open Pit,-24.240339,-70.509438,Production,136144.86221768707,16603031.977766711,0.0082,1261830430.31027,2780.487804878048,0.5394736842105264,1.078947368421053,1.6184210526315794,2.1578947368421053,False,False,False,False,0.0,0.0,Stable
45944590,Mantos Blancos Mine,CHL,Capstone Copper Corp,Open Pit,-23.448824,-70.090555,Production,249364.0,21874000.0,0.0114000182865502,1662424000.0,1999.996791838437,0.7500012030625159,1.5000024061250319,2.2500036091875475,3.0000048122500638,False,False,False,False,59300.5,351.1089402655668,Deteriorating (>10% increase)
45944591,Mantos Cobrizos Mine,CHL,Compañía Minera Carmen Bajo Ltda,Underground,-27.367325,-70.175065,Production,136144.86221768707,16603031.977766711,0.0082,1261830430.31027,2780.487804878048,0.5394736842105264,1.078947368421053,1.6184210526315794,2.1578947368421053,False,False,False,False,0.0,0.0,Stable
45944592,Mantos de Cobre Mine,CHL,Sociedad Punta del Cobre SA,Underground,-27.456773,-70.257575,Production,136144.86221768707,16603031.977766711,0.0082,1261830430.31027,2780.487804878048,0.5394736842105264,1.078947368421053,1.6184210526315794,2.1578947368421053,False,False,False,False,0.0,0.0,Stable
45944594,Mantoverde Mine,CHL,Capstone Copper Corp,Open Pit,-26.555019,-70.315988,Production,155887.0,25143000.0,0.0062000159090005,1910868000.0,3677.4099187231777,0.4078957834868761,0.8157915669737522,1.2236873504606285,1.6315831339475044,False,False,False,False,-1895.4,-9.059247678163066,Slightly Improving
45944596,Mi Vida Mine,CHL,Minera Cruz Ltda,Underground,-26.365135,-70.01094,Production,136144.86221768707,16603031.977766711,0.0082,1261830430.31027,2780.487804878048,0.5394736842105264,1.078947368421053,1.6184210526315794,2.1578947368421053,False,False,False,False,0.0,0.0,Stable
45944597,Michilla Mine,CHL,Haldeman Mining SA,Both,-22.684666,-70.180294,Production,136144.86221768707,16603031.977766711,0.0082,1261830430.31027,2780.487804878048,0.5394736842105264,1.078947368421053,1.6184210526315794,2.1578947368421053,False,False,False,False,0.0,0.0,Stable
45944598,Minera Valle Central Mine,CHL,Amerigo Resources Ltd,Underground,-34.236781,-70.686559,Production,1067961.0,55334789.0,0.0192999922706852,4205443964.0000005,1181.347623368269,1.2697363335977148,2.5394726671954295,3.8092090007931443,5.078945334390859,False,False,False,False,169483.1,87.8926228340098,Deteriorating (>10% increase)
45944599,Ministro Hales Mine,CHL,Codelco Corp,Open Pit,-22.381493,-68.914682,Production,336249.0,11437045.0,0.0293999892454738,869215420.0,775.5104877635324,1.9342098187811716,3.868419637562343,5.8026294563435155,7.736839275124686,False,False,False,False,16912.5,9.030155642023347,Slightly Deteriorating
45944600,Mirador Mine,CHL,,Underground,-30.665438,-71.206133,Production,136144.86221768707,16603031.977766711,0.0082,1261830430.31027,2780.487804878048,0.5394736842105264,1.078947368421053,1.6184210526315794,2.1578947368421053,False,False,False,False,0.0,0.0,Stable
45944603,Osornina Mine,CHL,,Underground,-18.922114,-70.232933,Production,136144.86221768707,16603031.977766711,0.0082,1261830430.31027,2780.487804878048,0.5394736842105264,1.078947368421053,1.6184210526315794,2.1578947368421053,False,False,False,False,0.0,0.0,Stable
45944604,Panulcillo Mine,CHL,Minera Cruz Ltda,Underground,-30.454754,-71.220931,Production,136144.86221768707,16603031.977766711,0.0082,1261830430.31027,2780.487804878048,0.5394736842105264,1.078947368421053,1.6184210526315794,2.1578947368421053,False,False,False,False,0.0,0.0,Stable
45944607,Pelusa Mine,CHL,Grupo Minera Las Cenizas SA,Open Pit,-25.852038,-69.924772,Production,19842.0,1028061.0,0.0193004111623726,78132636.0,1181.321983671001,1.2697638922613592,2.5395277845227184,3.8092916767840777,5.079055569045437,False,False,False,False,1188.5,24.315519077752022,Deteriorating (>10% increase)
45944608,Peumo Mine,CHL,Compañia Minera La Patagua SA,Underground,-32.511318,-71.070419,Production,136144.86221768707,16603031.977766711,0.0082,1261830430.31027,2780.487804878048,0.5394736842105264,1.078947368421053,1.6184210526315794,2.1578947368421053,False,False,False,False,0.0,0.0,Stable
45944612,Punta Atala Mine,CHL,,Open Pit,-22.275063,-70.172193,Production,136144.86221768707,16603031.977766711,0.0082,1261830430.31027,2780.487804878048,0.5394736842105264,1.078947368421053,1.6184210526315794,2.1578947368421053,False,False,False,False,0.0,0.0,Stable
45944613,Punta del Cobre Mine,CHL,Sociedad Punta del Cobre SA,Underground,-27.49162,-70.255259,Production,136144.86221768707,16603031.977766711,0.0082,1261830430.31027,2780.487804878048,0.5394736842105264,1.078947368421053,1.6184210526315794,2.1578947368421053,False,False,False,False,0.0,0.0,Stable
45944614,Quebrada Blanca Mine,CHL,Fullbloom Investment Corp,Open Pit,-21.000205,-68.81081,Production,2490.0,2490281.0,0.0009998871613283,189261356.0,22802.573012048193,0.06578205008739343,0.13156410017478687,0.19734615026218033,0.26312820034957374,False,False,False,False,-363.8,-21.2772684160607,Improving (>10% reduction)
45944615,Radomiro Tomic Mine,CHL,Codelco Corp,Open Pit,-22.196035,-68.857962,Production,497411.0,77720546.0,0.0063999936387477,5906761496.0,3562.503540934961,0.4210522130755083,0.8421044261510165,1.2631566392265248,1.684208852302033,False,False,False,False,19646.5,-0.45827404788063264,Stable
45944616,Resguardo Mine,CHL,Minera Cruz Ltda,Underground,-26.361441,-70.015413,Production,136144.86221768707,16603031.977766711,0.0082,1261830430.31027,2780.487804878048,0.5394736842105264,1.078947368421053,1.6184210526315794,2.1578947368421053,False,False,False,False,0.0,0.0,Stable
45944620,Salamanqueja Mine,CHL,,Both,-18.922114,-70.232933,Production,136144.86221768707,16603031.977766711,0.0082,1261830430.31027,2780.487804878048,0.5394736842105264,1.078947368421053,1.6184210526315794,2.1578947368421053,False,False,False,False,0.0,0.0,Stable
45944621,San Antonio Mine,CHL,,Underground,-29.802208,-71.033015,Production,136144.86221768707,16603031.977766711,0.0082,1261830430.31027,2780.487804878048,0.5394736842105264,1.078947368421053,1.6184210526315794,2.1578947368421053,False,False,False,False,0.0,0.0,Stable
45944623,San Luis Mine,CHL,Minera Cruz Ltda,Underground,-26.603866,-70.315411,Production,136144.86221768707,16603031.977766711,0.0082,1261830430.31027,2780.487804878048,0.5394736842105264,1.078947368421053,1.6184210526315794,2.1578947368421053,False,False,False,False,0.0,0.0,Stable
45944625,San Samuel Mine,CHL,,Open Pit,-27.069145,-69.990345,Production,19626.0,1016871.0,0.0193003832344515,77282196.0,1181.3236930602263,1.2697620548981294,2.539524109796259,3.8092861646943885,5.079048219592518,False,False,False,False,5413.3,418.5204755614267,Deteriorating (>10% increase)
45944626,Santa Alicia Mine,CHL,Minera Zupilocos Ltda,Underground,-30.791486,-71.208702,Production,136144.86221768707,16603031.977766711,0.0082,1261830430.31027,2780.487804878048,0.5394736842105264,1.078947368421053,1.6184210526315794,2.1578947368421053,False,False,False,False,0.0,0.0,Stable
45944627,Santos Mine,CHL,,Underground,-27.471552,-70.261538,Production,26879.0,2297386.0,0.0116998188375832,174601336.0,1948.7481230700546,0.7697249235252129,1.5394498470504259,2.3091747705756385,3.0788996941008517,False,False,False,False,-5938.9,-43.344645153131125,Improving (>10% reduction)
45944628,Sierra Gorda Mine,CHL,Government of Poland,Open Pit,-22.850649,-69.338345,Production,739840.0,57800000.0,0.0128,4392800000.0,1781.25,0.8421052631578947,1.6842105263157894,2.526315789473684,3.3684210526315788,False,False,False,False,-10437.2,-8.820335983455939,Slightly Improving
45944629,Sierra Miranda Mine,CHL,Minera Sierra Atacama SpA,Underground,-23.236142,-70.117813,Production,136144.86221768707,16603031.977766711,0.0082,1261830430.31027,2780.487804878048,0.5394736842105264,1.078947368421053,1.6184210526315794,2.1578947368421053,False,False,False,False,0.0,0.0,Stable
45944631,Spence Mine,CHL,The Vanguard Group Inc,Open Pit,-22.796559,-69.253482,Production,138757.0,49556000.0,0.0028000040358382,3766256000.0,8142.845405997536,0.18421079183146338,0.36842158366292677,0.5526323754943903,0.7368431673258535,False,False,False,False,11312.8,20.60792017244976,Deteriorating (>10% increase)
45944632,Talcuna Mine,CHL,,Underground,-29.888036,-70.890092,Production,136144.86221768707,16603031.977766711,0.0082,1261830430.31027,2780.487804878048,0.5394736842105264,1.078947368421053,1.6184210526315794,2.1578947368421053,False,False,False,False,0.0,0.0,Stable
45944636,Tugal Mine,CHL,,Open Pit,-29.760019,-70.924253,Production,136144.86221768707,16603031.977766711,0.0082,1261830430.31027,2780.487804878048,0.5394736842105264,1.078947368421053,1.6184210526315794,2.1578947368421053,False,False,False,False,0.0,0.0,Stable
45944637,UVA Mine,CHL,CEMIN Holding Minero Group,Underground,-32.721056,-70.959844,Production,136144.86221768707,16603031.977766711,0.0082,1261830430.31027,2780.487804878048,0.5394736842105264,1.078947368421053,1.6184210526315794,2.1578947368421053,False,False,False,False,0.0,0.0,Stable
45944638,Venado Sur Mine,CHL,Sociedad Punta del Cobre SA,Open Pit,-27.267686,-69.977703,Production,35958.0,1863098.0,0.0193001119640512,141595448.0,1181.340297013182,1.269744208161268,2.539488416322536,3.809232624483804,5.078976832645072,False,False,False,False,3766.0,43.33891413537431,Deteriorating (>10% increase)
45944639,Zaldivar Mine,CHL,Barrick Gold Corp,Open Pit,-24.217592,-69.066075,Production,161080.0,32216000.0,0.005,2448416000.0,4560.0,0.3289473684210526,0.6578947368421052,0.9868421052631579,1.3157894736842104,False,False,False,False,2497.8,4.298053638259023,Slightly Deteriorating
45944641,Anqing Mine,CHN,,Open Pit,30.599274,116.953694,Production,200220.42826909447,13086302.501248004,0.0153,994558990.0948484,1490.1960784313724,1.006578947368421,2.0131578947368416,3.0197368421052633,4.026315789473683,False,False,False,False,0.0,0.0,Stable
45944642,Ashele Mine,CHN,Zijin Mining Group Co Ltd,Underground,48.290804,86.338255,Production,119298.00001102194,7503035.000693206,0.015899965813834,570230660.0526836,1433.9653472815971,1.046050382489079,2.092100764978158,3.1381511474672372,4.184201529956316,False,False,False,False,3914.6000003616673,1.8857289264668131,Stable
45944643,Baifang Mine,CHN,Hunan Shuikoushan Nonferrous Metals Group Co Ltd,Underground,26.545445,112.452599,Production,200220.42826909447,13086302.501248004,0.0153,994558990.0948484,1490.1960784313724,1.006578947368421,2.0131578947368416,3.0197368421052633,4.026315789473683,False,False,False,False,0.0,0.0,Stable
45944644,Bao'ertu Mine,CHN,Baogang Group,Open Pit,42.502259,87.610921,Production,200220.42826909447,13086302.501248004,0.0153,994558990.0948484,1490.1960784313724,1.006578947368421,2.0131578947368416,3.0197368421052633,4.026315789473683,False,False,False,False,0.0,0.0,Stable
45944645,Chengchao Mine,CHN,,Underground,30.326725,114.904831,Production,200220.42826909447,13086302.501248004,0.0153,994558990.0948484,1490.1960784313724,1.006578947368421,2.0131578947368416,3.0197368421052633,4.026315789473683,False,False,False,False,0.0,0.0,Stable
45944646,Chengmenshan Mine,CHN,Jiangxi Copper Co Ltd,Open Pit,29.681104,115.802893,Production,42126.000003892026,2649450.000244783,0.0158999037536092,201358200.0186035,1433.9709443099273,1.046046299579555,2.0920925991591104,3.1381388987386662,4.184185198318221,False,False,False,False,370.6000000342407,-5.733082706766913,Slightly Improving
45944647,Chimashan Mine,CHN,,Open Pit,29.992701,115.100934,Production,200220.42826909447,13086302.501248004,0.0153,994558990.0948484,1490.1960784313724,1.006578947368421,2.0131578947368416,3.0197368421052633,4.026315789473683,False,False,False,False,0.0,0.0,Stable
45944648,Dabaoshan Mine,CHN,Guangdong Dabaoshan Mining,Open Pit,24.557641,113.715914,Production,200220.42826909447,13086302.501248004,0.0153,994558990.0948484,1490.1960784313724,1.006578947368421,2.0131578947368416,3.0197368421052633,4.026315789473683,False,False,False,False,0.0,0.0,Stable
45944649,Dajing Mine,CHN,,Underground,43.691404,118.256569,Production,200220.42826909447,13086302.501248004,0.0153,994558990.0948484,1490.1960784313724,1.006578947368421,2.0131578947368416,3.0197368421052633,4.026315789473683,False,False,False,False,0.0,0.0,Stable
45944651,Dexing Mine,CHN,Jiangxi Copper Co Ltd,Open Pit,29.019251,117.727336,Production,568452.0000525193,35751686.003303096,0.0159000053871585,2717128136.251035,1433.961778303181,1.0460529859972714,2.0921059719945427,3.138158957991814,4.1842119439890855,False,False,False,False,13570.800001253805,-0.863787375415286,Stable
45944652,Dongguashan Mine,CHN,,Open Pit,30.917253,117.972777,Production,200220.42826909447,13086302.501248004,0.0153,994558990.0948484,1490.1960784313724,1.006578947368421,2.0131578947368416,3.0197368421052633,4.026315789473683,False,False,False,False,0.0,0.0,Stable
45944653,Dongshengmiao Mine,CHN,,Underground,41.114931,107.056582,Production,200220.42826909447,13086302.501248004,0.0153,994558990.0948484,1490.1960784313724,1.006578947368421,2.0131578947368416,3.0197368421052633,4.026315789473683,False,False,False,False,0.0,0.0,Stable
45944654,Duobaoshan Mine,CHN,Zijin Mining Group Co Ltd,Open Pit,50.135172,125.797955,Production,277163.00002560706,17431624.001610506,0.015900010234273,1324803424.1223986,1433.9613411602559,1.0460533048863856,2.092106609772771,3.1381599146591577,4.184213219545542,False,False,False,False,11853.200001095112,5.382366248807065,Slightly Deteriorating
45944655,Fengjiashan Mine,CHN,,Open Pit,30.05306,114.97861,Production,200220.42826909447,13086302.501248004,0.0153,994558990.0948484,1490.1960784313724,1.006578947368421,2.0131578947368416,3.0197368421052633,4.026315789473683,False,False,False,False,0.0,0.0,Stable
45944656,Fengshan Mine,CHN,Daye Nonferrous Metals [TO BE DELETED] Co Ltd,Open Pit,29.819286,115.449362,Production,200220.42826909447,13086302.501248004,0.0153,994558990.0948484,1490.1960784313724,1.006578947368421,2.0131578947368416,3.0197368421052633,4.026315789473683,False,False,False,False,0.0,0.0,Stable
45944657,Gacun Mine,CHN,,Open Pit,31.181303,99.537038,Production,200220.42826909447,13086302.501248004,0.0153,994558990.0948484,1490.1960784313724,1.006578947368421,2.0131578947368416,3.0197368421052633,4.026315789473683,False,False,False,False,0.0,0.0,Stable
45944658,Hongtoushan Mine,CHN,,Underground,41.99722,124.51528,Production,200220.42826909447,13086302.501248004,0.0153,994558990.0948484,1490.1960784313724,1.006578947368421,2.0131578947368416,3.0197368421052633,4.026315789473683,False,False,False,False,0.0,0.0,Stable
45944659,Huashugou Mine,CHN,,Underground,39.33917,97.94222,Production,200220.42826909447,13086302.501248004,0.0153,994558990.0948484,1490.1960784313724,1.006578947368421,2.0131578947368416,3.0197368421052633,4.026315789473683,False,False,False,False,0.0,0.0,Stable
45944660,Huogeqi Mine,CHN,,Open Pit,41.289415,106.673628,Production,200220.42826909447,13086302.501248004,0.0153,994558990.0948484,1490.1960784313724,1.006578947368421,2.0131578947368416,3.0197368421052633,4.026315789473683,False,False,False,False,0.0,0.0,Stable
45944661,Huoyanshan Mine,CHN,,Open Pit,36.650823,104.227208,Production,200220.42826909447,13086302.501248004,0.0153,994558990.0948484,1490.1960784313724,1.006578947368421,2.0131578947368416,3.0197368421052633,4.026315789473683,False,False,False,False,0.0,0.0,Stable
45944662,Jiama Mine,CHN,China Gold International Resources Corp,Both,29.69223,91.760964,Production,64258.0000059368,4041389.000373384,0.0158999789428832,307145564.0283772,1433.9641632170312,1.0460512462423193,2.0921024924846385,3.138153738726958,4.184204984969277,False,False,False,False,-74332.60000686758,-74.24105764875189,Improving (>10% reduction)
45944663,Jinchang Mine,CHN,,Underground,35.592842,118.408582,Production,200220.42826909447,13086302.501248004,0.0153,994558990.0948484,1490.1960784313724,1.006578947368421,2.0131578947368416,3.0197368421052633,4.026315789473683,False,False,False,False,0.0,0.0,Stable
45944664,Jingouba Mine,CHN,,Open Pit,26.127562,100.196553,Production,200220.42826909447,13086302.501248004,0.0153,994558990.0948484,1490.1960784313724,1.006578947368421,2.0131578947368416,3.0197368421052633,4.026315789473683,False,False,False,False,0.0,0.0,Stable
45944665,Lanniping Mine,CHN,,Open Pit,26.18333,102.98333,Production,200220.42826909447,13086302.501248004,0.0153,994558990.0948484,1490.1960784313724,1.006578947368421,2.0131578947368416,3.0197368421052633,4.026315789473683,False,False,False,False,0.0,0.0,Stable
45944666,Luodang Mine,CHN,,Open Pit,26.226054,101.955903,Production,200220.42826909447,13086302.501248004,0.0153,994558990.0948484,1490.1960784313724,1.006578947368421,2.0131578947368416,3.0197368421052633,4.026315789473683,False,False,False,False,0.0,0.0,Stable
45944667,Luoxue Mine,CHN,,Open Pit,26.230499,102.953045,Production,200220.42826909447,13086302.501248004,0.0153,994558990.0948484,1490.1960784313724,1.006578947368421,2.0131578947368416,3.0197368421052633,4.026315789473683,False,False,False,False,0.0,0.0,Stable
45944669,Pulang Mine,CHN,JCHX Mining Management Co Ltd,Underground,28.029929,99.977195,Production,184586.0000170539,11609169.00107257,0.0159000183389526,882296844.0815153,1433.9606102304613,1.046053838088987,2.0921076761779744,3.138161514266961,4.184215352355948,False,False,False,False,7766.40000071754,5.274384331975959,Slightly Deteriorating
45944670,Qulong Mine,CHN,,Open Pit,29.691729,91.628756,Production,27677.00000255708,1740706.0001608238,0.0158998705123093,132293656.0122226,1433.9739422625282,1.0460441126519326,2.0920882253038653,3.1381323379557973,4.184176450607731,False,False,False,False,8323.10000076897,671.1618835330175,Deteriorating (>10% increase)
45944671,Rongmucuola Mine,CHN,,Open Pit,29.622663,91.593941,Production,40360.00000372886,2538334.0002345163,0.0159001928036263,192913384.01782322,1433.944876114965,1.0460653160280473,2.0921306320560946,3.1381959480841424,4.184261264112189,False,False,False,False,10010.200000924844,379.7907750832145,Deteriorating (>10% increase)
45944672,Saishitang Mine,CHN,,Open Pit,35.306489,99.791388,Production,200220.42826909447,13086302.501248004,0.0153,994558990.0948484,1490.1960784313724,1.006578947368421,2.0131578947368416,3.0197368421052633,4.026315789473683,False,False,False,False,0.0,0.0,Stable
45944675,Shuguang Mine,CHN,,Open Pit,43.214081,130.886326,Production,33268.000003073634,2092336.000193311,0.0158999319420972,159017536.01469165,1433.9684020680534,1.0460481540853455,2.0920963081706914,3.1381444622560366,4.184192616341383,False,False,False,False,548.8000000507047,-3.8774920543195464,Slightly Improving
45944676,Suolajier Mine,CHN,,Open Pit,36.85472,91.17028,Production,200220.42826909447,13086302.501248004,0.0153,994558990.0948484,1490.1960784313724,1.006578947368421,2.0131578947368416,3.0197368421052633,4.026315789473683,False,False,False,False,0.0,0.0,Stable
45944679,Tianbaoshan Mine,CHN,,Underground,42.943748,128.967667,Production,200220.42826909447,13086302.501248004,0.0153,994558990.0948484,1490.1960784313724,1.006578947368421,2.0131578947368416,3.0197368421052633,4.026315789473683,False,False,False,False,0.0,0.0,Stable
45944682,Tongshan Mine,CHN,Zijin Mining Group Co Ltd,Open Pit,50.240623,125.780273,Production,200220.42826909447,13086302.501248004,0.0153,994558990.0948484,1490.1960784313724,1.006578947368421,2.0131578947368416,3.0197368421052633,4.026315789473683,False,False,False,False,0.0,0.0,Stable
45944683,Tongshankou Mine,CHN,Daye Nonferrous Metals [TO BE DELETED] Co Ltd,Open Pit,29.99972,114.83778,Production,200220.42826909447,13086302.501248004,0.0153,994558990.0948484,1490.1960784313724,1.006578947368421,2.0131578947368416,3.0197368421052633,4.026315789473683,False,False,False,False,0.0,0.0,Stable
45944684,Tuwu Mine,CHN,Shandong Gold Mining Co Ltd,Open Pit,42.113112,92.601206,Production,200220.42826909447,13086302.501248004,0.0153,994558990.0948484,1490.1960784313724,1.006578947368421,2.0131578947368416,3.0197368421052633,4.026315789473683,False,False,False,False,0.0,0.0,Stable
45944685,Wandongshan Mine,CHN,,Open Pit,26.199355,100.213162,Production,200220.42826909447,13086302.501248004,0.0153,994558990.0948484,1490.1960784313724,1.006578947368421,2.0131578947368416,3.0197368421052633,4.026315789473683,False,False,False,False,0.0,0.0,Stable
45944686,Wunugetushan Mine,CHN,,Open Pit,49.419694,117.294497,Production,200220.42826909447,13086302.501248004,0.0153,994558990.0948484,1490.1960784313724,1.006578947368421,2.0131578947368416,3.0197368421052633,4.026315789473683,False,False,False,False,0.0,0.0,Stable
45944687,Wushan Mine,CHN,Jiangxi Copper Co Ltd,Underground,29.74687,115.64631,Production,45877.00000423857,2885326.0002665757,0.0159001097276356,219284776.02025974,1433.952368289121,1.0460598505023437,2.0921197010046875,3.1381795515070317,4.184239402009375,False,False,False,False,3162.8000002922104,13.184318949991367,Deteriorating (>10% increase)
45944688,Xinqiao Mine,CHN,,Open Pit,30.916935,117.992943,Production,200220.42826909447,13086302.501248004,0.0153,994558990.0948484,1490.1960784313724,1.006578947368421,2.0131578947368416,3.0197368421052633,4.026315789473683,False,False,False,False,0.0,0.0,Stable
45944689,Yemaquan Mine,CHN,Zhaojin Mining Industry Co Ltd,Underground,37.00333,91.98139,Production,200220.42826909447,13086302.501248004,0.0153,994558990.0948484,1490.1960784313724,1.006578947368421,2.0131578947368416,3.0197368421052633,4.026315789473683,False,False,False,False,0.0,0.0,Stable
45944691,Yinshan Mine,CHN,Jiangxi Copper Co Ltd,Open Pit,28.973904,117.5982,Production,49173.00000454309,3092638.000285729,0.0159000180428488,235040488.0217154,1433.9606369349033,1.0460538186084773,2.0921076372169547,3.138161455825432,4.184215274433909,False,False,False,False,4005.5000003700684,18.042585879924143,Deteriorating (>10% increase)
45944692,Yongping Mine,CHN,Jiangxi Copper Co Ltd,Open Pit,28.197887,117.763339,Production,30476.00000281568,1916717.0001770852,0.0159001041885682,145670492.0134585,1433.9528678304237,1.0460594860900174,2.0921189721800353,3.138178458270053,4.18423794436007,False,False,False,False,-5502.400000508366,-34.010350128835285,Improving (>10% reduction)
45944693,Yulong Mine,CHN,West Mining Group,Open Pit,31.412222,97.733611,Production,322944.0000298368,20310954.00187653,0.0158999916990605,1543632504.1426163,1433.9630127824018,1.046052085464508,2.092104170929016,3.138156256393523,4.184208341858032,False,False,False,False,16159.10000149294,7.1046225482717675,Slightly Deteriorating
45944696,Zhibula Mine,CHN,,Open Pit,29.598966,91.596616,Production,396303.0000366144,24924700.0023028,0.0159000108326278,1894277200.1750128,1433.961287196918,1.0460533442518336,2.092106688503667,3.1381600327555006,4.184213377007334,False,False,False,False,131303.50001213112,1086.0387861375473,Deteriorating (>10% increase)
45944697,Zhunuo Mine,CHN,,Open Pit,29.653828,87.477004,Production,200220.42826909447,13086302.501248004,0.0153,994558990.0948484,1490.1960784313724,1.006578947368421,2.0131578947368416,3.0197368421052633,4.026315789473683,False,False,False,False,0.0,0.0,Stable
45944698,Zijinshan Mine,CHN,Zijin Mining Group Co Ltd,Open Pit,25.193038,116.408588,Production,476523.000044026,29969978.002768926,0.0159000116716802,2277718328.2104383,1433.961211525991,1.0460533994526475,2.092106798905295,3.138160198357942,4.18421359781059,False,False,False,False,19855.700001834484,5.1140537213873225,Slightly Deteriorating
45944699,El Roble Mine,COL,Atico Mining Corp,Underground,5.926304,-76.137117,Production,4075.000029636477,288987.00210173166,0.014100980320914,21963012.159731608,1616.9088588957056,0.9276960737443478,1.855392147488696,2.783088221233044,3.710784294977392,False,False,False,False,349.00000253819155,28.306045340050378,Deteriorating (>10% increase)
45944708,Skouriotissa Mine,CYP,Hellenic Copper Mines Ltd,Open Pit,35.091201,32.896614,Production,6610.0000006106975,440699.0000407162,0.0149988994756057,33493124.00309443,1520.1115279878973,0.9867697023424866,1.9735394046849732,2.9603091070274603,3.9470788093699474,False,False,False,False,807.0000000745586,31.51611619578192,Deteriorating (>10% increase)
45944710,Cerro de Maimon Mine,DOM,Shenzhen Zhongjin Lingnan Nonfemet Co Ltd,Underground,18.884916,-70.242466,Production,31085.0,842409.0,0.0369001280850513,64023084.0,617.8840341000482,2.4276400055954817,4.855280011190963,7.282920016786446,9.710560022381927,False,False,False,False,-1010.8,-3.6542276221175305,Slightly Improving
45944711,Pueblo Viejo Mine,DOM,Barrick Gold Corp,Open Pit,18.942314,-70.177923,Production,479331.0,12990000.0,0.0369,987240000.0,617.8861788617886,2.4276315789473686,4.855263157894737,7.282894736842104,9.710526315789474,False,False,False,False,-12094.1,-5.773529047515141,Slightly Improving
45944714,Baraka Mine,COD,,Open Pit,-10.619401,25.912994,Production,83892.28297372989,2853479.012711901,0.0294,216864404.9661045,775.5102040816328,1.9342105263157894,3.8684210526315788,5.802631578947367,7.7368421052631575,False,False,False,False,0.0,0.0,Stable
45944715,Bisie Mine,COD,Alphamin Resources Corp,Underground,-1.038072,27.743952,Production,83892.28297372989,2853479.012711901,0.0294,216864404.9661045,775.5102040816328,1.9342105263157894,3.8684210526315788,5.802631578947367,7.7368421052631575,False,False,False,False,0.0,0.0,Stable
45944718,Chache Mine,COD,,Open Pit,-10.977729,25.889186,Production,4280.0,103390.0,0.0413966534481091,7857640.0,550.7691588785046,2.7234640426387564,5.446928085277513,8.170392127916271,10.893856170555026,False,False,False,False,-686.3,-30.21359856513941,Improving (>10% reduction)
45944719,Deziwa Mine,COD,China Nonferrous Metal Mining (Group) Co Ltd,Open Pit,-10.785628,25.767493,Production,70960.0,3986544.0,0.0177998787922571,302977344.0,1280.9075986471253,1.171044657385339,2.342089314770678,3.513133972156017,4.684178629541356,False,False,False,False,-825.7,-13.050936760975848,Improving (>10% reduction)
45944720,Dikulushi Mine,COD,JCHX Mining Management Co Ltd,Open Pit,-8.89308,28.270668,Production,83892.28297372989,2853479.012711901,0.0294,216864404.9661045,775.5102040816328,1.9342105263157894,3.8684210526315788,5.802631578947367,7.7368421052631575,False,False,False,False,0.0,0.0,Stable
45944721,Dikuluwe-Mashamba West Mine,COD,SinoCongolaise des Mines SA,Open Pit,-10.742402,25.369888,Production,1791061.0,43262351.0,0.0413999923397598,3287938676.0,550.724739581734,2.723683706563145,5.44736741312629,8.171051119689436,10.89473482625258,False,False,False,False,352828.4,140.29088830811997,Deteriorating (>10% increase)
45944722,Disele Sud Mine,COD,,Open Pit,-10.751902,26.252679,Production,69615.0,2096850.0,0.0331997996995493,159360600.0,686.7511312217194,2.1841973486545605,4.368394697309121,6.552592045963683,8.736789394618242,False,False,False,False,1287.9,19.96174458479089,Deteriorating (>10% increase)
45944723,Djombelo Mine,COD,,Open Pit,-11.031429,26.658375,Production,21199.0,512044.0,0.0414007389989922,38915344.0,550.7148073022312,2.7237328288810705,5.447465657762141,8.171198486643211,10.894931315524282,False,False,False,False,3118.1,58.74644301332934,Deteriorating (>10% increase)
45944724,Etoile Mine,COD,Shalina Resources Ltd,Open Pit,-11.634008,27.583805,Production,102728.0,2481355.0,0.0413999609084552,188582980.0,550.7251576979986,2.7236816387141616,5.447363277428323,8.171044916142485,10.894726554856646,False,False,False,False,26091.7,279.35007385524375,Deteriorating (>10% increase)
45944725,Frontier Mine,COD,Eurasian Resources Group SARL,Open Pit,-12.733716,28.475469,Production,310395.0,9349260.0,0.0331999537931344,710543760.0,686.7479437490939,2.184207486390423,4.368414972780846,6.5526224591712685,8.736829945561691,False,False,False,False,11776.7,11.485248798569057,Deteriorating (>10% increase)
45944726,Goma Mine,COD,,Open Pit,-10.613256,25.884818,Production,83892.28297372989,2853479.012711901,0.0294,216864404.9661045,775.5102040816328,1.9342105263157894,3.8684210526315788,5.802631578947367,7.7368421052631575,False,False,False,False,0.0,0.0,Stable
45944727,Hanrui Mine,COD,Nanjing Hanrui Cobalt Co Ltd,Underground,-10.641589,25.468922,Production,83892.28297372989,2853479.012711901,0.0294,216864404.9661045,775.5102040816328,1.9342105263157894,3.8684210526315788,5.802631578947367,7.7368421052631575,False,False,False,False,0.0,0.0,Stable
45944728,Judeira Mine,COD,,Open Pit,-11.223212,27.063547,Production,83892.28297372989,2853479.012711901,0.0294,216864404.9661045,775.5102040816328,1.9342105263157894,3.8684210526315788,5.802631578947367,7.7368421052631575,False,False,False,False,0.0,0.0,Stable
45944733,Kabolela Mine,COD,,Open Pit,-10.844071,26.477366,Production,73123.0,2202504.0,0.0331999397049903,167390304.0,686.7482351654062,2.1842065595388367,4.368413119077673,6.55261967861651,8.736826238155347,False,False,False,False,6130.7,34.6896297660711,Deteriorating (>10% increase)
45944736,Kakanda Mine,COD,Eurasian Resources Group SARL,Open Pit,-10.732567,26.407176,Production,139118.0,4190305.0,0.0331999699305897,318463180.0,686.7476099426386,2.1842085480651168,4.3684170961302335,6.55262564419535,8.736834192260467,False,False,False,False,11145.4,30.300561034776663,Deteriorating (>10% increase)
45944740,Kalongwe Mine,COD,,Open Pit,-11.015938,25.230122,Production,48786.0,1178417.0,0.0413996064211565,89559692.0,550.7298733243143,2.72365831718135,5.4473166343627,8.17097495154405,10.8946332687254,False,False,False,False,4467.9,32.787152966793684,Deteriorating (>10% increase)
45944741,Kalukundi Mine,COD,Eurasian Resources Group SARL,Open Pit,-10.623521,25.897255,Production,126941.0,3823535.0,0.0331999053232153,290588660.0,686.7489463609078,2.184204297579954,4.368408595159908,6.552612892739861,8.736817190319815,False,False,False,False,-17762.2,-18.550291302004464,Improving (>10% reduction)
45944743,Kamatanda Mine,COD,Government of the Democratic Republic of Congo,Open Pit,-10.953301,26.773329,Production,70282.0,1697630.0,0.0414000695086679,129019880.00000001,550.7237130417461,2.7236887834649974,5.447377566929995,8.171066350394993,10.89475513385999,False,False,False,False,311.4,13.688126819799418,Deteriorating (>10% increase)
45944744,Kambove Principal Mine,COD,,Both,-10.882907,26.611274,Production,48024.0,1160000.0,0.0414,88160000.0,550.7246376811594,2.7236842105263155,5.447368421052631,8.171052631578947,10.894736842105262,False,False,False,False,11685.8,215.7396449704142,Deteriorating (>10% increase)
45944746,Kamfundwa Mine,COD,Government of the Democratic Republic of Congo,Open Pit,-10.813865,26.590721,Production,86044.0,2078361.0,0.0413999300410275,157955436.0,550.7255683138859,2.7236796079623367,5.447359215924673,8.171038823887011,10.894718431849347,False,False,False,False,2852.5,14.54816550402045,Deteriorating (>10% increase)
45944747,Kaminafitwe Mine,COD,,Open Pit,-11.222759,27.135643,Production,21339.0,515440.00000000006,0.0413995809405556,39173440.00000001,550.7302122873613,2.7236566408260288,5.4473132816520575,8.170969922478086,10.894626563304115,False,False,False,False,6374.9,393.0452865064695,Deteriorating (>10% increase)
45944748,Kamoto Mine,COD,,Underground,-10.722333,25.401579,Production,26548.0,583482.0,0.0454992613311121,44344632.0,501.10703631158657,2.9933724559942223,5.986744911988445,8.980117367982668,11.97348982397689,False,False,False,False,1911.399999999999,6.957817976713253,Slightly Deteriorating
45944749,Kamoya Central Mine,COD,,Open Pit,-10.878803,26.576711,Production,83892.28297372989,2853479.012711901,0.0294,216864404.9661045,775.5102040816328,1.9342105263157894,3.8684210526315788,5.802631578947367,7.7368421052631575,False,False,False,False,0.0,0.0,Stable
45944750,Kamoya Sud Mine,COD,,Open Pit,-10.886051,26.582556,Production,83892.28297372989,2853479.012711901,0.0294,216864404.9661045,775.5102040816328,1.9342105263157894,3.8684210526315788,5.802631578947367,7.7368421052631575,False,False,False,False,0.0,0.0,Stable
45944752,Kampina Mine,COD,,Open Pit,-10.792026,26.625538,Production,3202.0,77354.0,0.0413941101946893,5878904.0,550.8029981261711,2.7232967233348258,5.4465934466696515,8.169890170004477,10.893186893339303,False,False,False,False,528.3,97.65432098765432,Deteriorating (>10% increase)
45944753,Kamwali Mine,COD,,Open Pit,-11.150943,27.212379,Production,83892.28297372989,2853479.012711901,0.0294,216864404.9661045,775.5102040816328,1.9342105263157894,3.8684210526315788,5.802631578947367,7.7368421052631575,False,False,False,False,0.0,0.0,Stable
45944755,Kanalonga Mine,COD,,Open Pit,-10.972233,25.433197,Production,8108.0,195837.0,0.0414017780092628,14883612.000000002,550.7009866798224,2.723801184819921,5.447602369639842,8.171403554459763,10.895204739279684,False,False,False,False,1190.5,54.027355623100306,Deteriorating (>10% increase)
45944758,Kansamia Mine,COD,,Open Pit,-10.790971,25.721305,Production,22480.0,542985.0,0.0414007753437019,41266860.0,550.7143238434164,2.723735219980391,5.447470439960782,8.171205659941174,10.894940879921563,False,False,False,False,2623.3,44.90137939925229,Deteriorating (>10% increase)
45944759,Kansansama Mine,COD,,Open Pit,-11.033766,26.400147,Production,31993.0,772782.0,0.0413997738042552,58731432.0,550.7276466727096,2.7236693292273206,5.447338658454641,8.171007987681962,10.894677316909283,False,False,False,False,3559.8,51.812660149947796,Deteriorating (>10% increase)
45944760,Kansuki Mine,COD,Qatar Investment Authority,Open Pit,-10.73824,25.860634,Production,74650.0,1640652.0,0.045500203577602,124689552.0,501.09665907568655,2.9934344458948736,5.986868891789747,8.980303337684619,11.973737783579494,False,False,False,False,5336.8,6.0685715909575295,Slightly Deteriorating
45944764,Kapapa Mine,COD,Somika SARL,Open Pit,-12.12063,27.667896,Production,83892.28297372989,2853479.012711901,0.0294,216864404.9661045,775.5102040816328,1.9342105263157894,3.8684210526315788,5.802631578947367,7.7368421052631575,False,False,False,False,0.0,0.0,Stable
45944767,Karajipopo Mine,COD,,Open Pit,-10.950171,26.692452,Production,13200.0,318848.0,0.0413990365315134,24232448.0,550.7374545454545,2.723620824441674,5.447241648883348,8.170862473325023,10.894483297766696,False,False,False,False,2057.2,66.28873771730915,Deteriorating (>10% increase)
45944768,Karu Mine,COD,,Open Pit,-11.629578,27.277397,Production,83892.28297372989,2853479.012711901,0.0294,216864404.9661045,775.5102040816328,1.9342105263157894,3.8684210526315788,5.802631578947367,7.7368421052631575,False,False,False,False,0.0,0.0,Stable
45944769,Karuano Mine,COD,,Open Pit,-11.153124,26.957968,Production,83892.28297372989,2853479.012711901,0.0294,216864404.9661045,775.5102040816328,1.9342105263157894,3.8684210526315788,5.802631578947367,7.7368421052631575,False,False,False,False,0.0,0.0,Stable
45944772,Kasonta Mine,COD,,Open Pit,-11.600492,27.275555,Production,83892.28297372989,2853479.012711901,0.0294,216864404.9661045,775.5102040816328,1.9342105263157894,3.8684210526315788,5.802631578947367,7.7368421052631575,False,False,False,False,0.0,0.0,Stable
45944774,Kate Mine,COD,,Open Pit,-10.433945,26.456384,Production,83892.28297372989,2853479.012711901,0.0294,216864404.9661045,775.5102040816328,1.9342105263157894,3.8684210526315788,5.802631578947367,7.7368421052631575,False,False,False,False,0.0,0.0,Stable
45944775,Kawesitu Mine,COD,,Open Pit,-11.079329,26.254917,Production,83892.28297372989,2853479.012711901,0.0294,216864404.9661045,775.5102040816328,1.9342105263157894,3.8684210526315788,5.802631578947367,7.7368421052631575,False,False,False,False,0.0,0.0,Stable
45944776,Kayebala Mine,COD,,Open Pit,-10.636796,25.779606,Production,13075.0,315829.0,0.0413989848937241,24003004.0,550.7381414913958,2.7236174272186933,5.4472348544373865,8.17085228165608,10.894469708874773,False,False,False,False,354.2,10.626956595312633,Deteriorating (>10% increase)
45944777,Kazibizi Mine,COD,,Open Pit,-10.841078,26.603808,Production,34243.0,827118.0,0.041400380598657,62860968.00000001,550.7195748036096,2.723709249911646,5.447418499823292,8.171127749734937,10.894836999646584,False,False,False,False,6658.5,106.99389469866409,Deteriorating (>10% increase)
45944780,Kibolwe Mine,COD,,Open Pit,-11.174531,26.194824,Production,41288.0,997296.0,0.0413999454525035,75794496.0,550.7253633016858,2.7236806218752347,5.4473612437504695,8.171041865625703,10.894722487500939,False,False,False,False,-1096.1,-2.661668670580192,Slightly Improving
45944781,Kibutu Mine,COD,,Open Pit,-11.404777,27.838931,Production,22948.0,554305.0,0.0413995904781663,42127180.00000001,550.7300854104934,2.7236572683004177,5.447314536600835,8.170971804901251,10.89462907320167,False,False,False,False,3415.4,78.37543723280218,Deteriorating (>10% increase)
45944784,Kileba Mine,COD,,Open Pit,-11.282484,27.124026,Production,83892.28297372989,2853479.012711901,0.0294,216864404.9661045,775.5102040816328,1.9342105263157894,3.8684210526315788,5.802631578947367,7.7368421052631575,False,False,False,False,0.0,0.0,Stable
45944787,Kimbwe Mine,COD,,Open Pit,-11.164799,27.449706,Production,61065.0,1475002.0,0.0413999438644829,112100152.0,550.7253844264309,2.7236805174001906,5.447361034800381,8.17104155220057,10.894722069600762,False,False,False,False,9584.1,66.17230869707194,Deteriorating (>10% increase)
45944789,Kimpe Mine,COD,Somika SARL,Open Pit,-12.015829,27.90022,Production,83892.28297372989,2853479.012711901,0.0294,216864404.9661045,775.5102040816328,1.9342105263157894,3.8684210526315788,5.802631578947367,7.7368421052631575,False,False,False,False,0.0,0.0,Stable
45944791,Kinsenda Mine,COD,Jinchuan Group International Resources Co Ltd,Underground,-12.24853,27.969394,Production,6322.0,645124.0,0.0097996664207191,49029424.0,2326.6098070230937,0.6447148960999419,1.2894297921998839,1.9341446882998259,2.5788595843997677,False,False,False,False,1474.7,64.50689565443663,Deteriorating (>10% increase)
45944792,Kinsevere Mine,COD,MMG Ltd,Open Pit,-11.369167,27.567117,Production,102460.0,2784244.0,0.0367999356378248,211602544.0,619.5663009955103,2.4210483972253187,4.8420967944506375,7.263145191675957,9.684193588901275,False,False,False,False,26384.0,336.22275204359676,Deteriorating (>10% increase)
45944794,Kipese Mine,COD,,Open Pit,-11.067832,26.523331,Production,273601.0,8240996.0,0.0331999918456458,626315696.0000001,686.7471566258897,2.1842099898451206,4.368419979690241,6.552629969535362,8.736839959380482,False,False,False,False,18145.900000000005,35.40917077033481,Deteriorating (>10% increase)
45944795,Kipoi Mine,COD,Tiger Resources Ltd,Open Pit,-11.246144,27.099857,Production,117631.0,2841332.0,0.0413999490379864,215941232.0,550.7253156055801,2.7236808577622638,5.4473617155245275,8.17104257328679,10.894723431049055,False,False,False,False,25861.4,176.9873787322219,Deteriorating (>10% increase)
45944797,Kisanfu Mine,COD,China Molybdenum Co Ltd,Open Pit,-10.768082,25.96603,Production,70032.0,1691600.0,0.0413998581224875,128561600.00000001,550.726525017135,2.7236748764794463,5.447349752958893,8.171024629438337,10.894699505917785,False,False,False,False,-6597.1,-17.531794630240228,Improving (>10% reduction)
45944798,Kisunka Mine,COD,,Open Pit,-10.981438,26.696694,Production,83892.28297372989,2853479.012711901,0.0294,216864404.9661045,775.5102040816328,1.9342105263157894,3.8684210526315788,5.802631578947367,7.7368421052631575,False,False,False,False,0.0,0.0,Stable
45944799,Kolwezi Mine,COD,Zijin Mining Group Co Ltd,Open Pit,-10.727414,25.457092,Production,288836.0,18165770.0,0.0159000141474872,1380598520.0,1433.960988242463,1.0460535623346896,2.092107124669379,3.1381606870040684,4.184214249338758,False,False,False,False,14718.7,9.025573275455317,Slightly Deteriorating
45944800,KOV Mine,COD,,Both,-10.711632,25.418753,Production,221939.0,4877784.0,0.0454999647380859,370711584.0,501.0992894443969,2.9934187327688146,5.986837465537629,8.980256198306444,11.973674931075259,False,False,False,False,15979.9,6.95855421686747,Slightly Deteriorating
45944801,Lenge Mine,COD,,Open Pit,-10.625311,25.800894,Production,19152.0,462613.0,0.0413996147968172,35158588.0,550.729761904762,2.7236588682116585,5.447317736423317,8.170976604634976,10.894635472846634,False,False,False,False,2332.9,78.89034186437512,Deteriorating (>10% increase)
45944804,Lonshi Mine,COD,JCHX Mining Management Co Ltd,Open Pit,-13.173804,28.941482,Production,9431.0,227811.0,0.041398352142785,17313636.0,550.7465592195949,2.723575798867436,5.447151597734872,8.170727396602308,10.894303195469744,False,False,False,False,3713.2,inf,Deteriorating (>10% increase)
45944806,Ludjiba Mine,COD,,Open Pit,-10.970158,26.557527,Production,117662.0,2842087.0,0.0413998586250174,215998612.0,550.7265183321717,2.7236749095406227,5.4473498190812455,8.171024728621868,10.894699638162491,False,False,False,False,9009.3,30.690539925136896,Deteriorating (>10% increase)
45944808,Lufungu Mine,COD,,Open Pit,-10.9673,25.806799,Production,18590.0,449029.0,0.041400444069314,34126204.0,550.718730500269,2.7237134256127637,5.4474268512255275,8.171140276838292,10.894853702451055,False,False,False,False,2341.7,61.31551544602568,Deteriorating (>10% increase)
45944809,Luishia Mine,COD,China RAILWAY Group Ltd,Open Pit,-11.168114,27.004992,Production,76452.0,1846677.0,0.0413997683406464,140347452.0,550.7277193533198,2.7236689697793732,5.4473379395587465,8.171006909338118,10.894675879117493,False,False,False,False,9045.1,43.09886572081009,Deteriorating (>10% increase)
45944810,Luishia Sud Mine,COD,,Open Pit,-11.187612,27.017136,Production,83892.28297372989,2853479.012711901,0.0294,216864404.9661045,775.5102040816328,1.9342105263157894,3.8684210526315788,5.802631578947367,7.7368421052631575,False,False,False,False,0.0,0.0,Stable
45944811,Luiswishi Mine,COD,,Open Pit,-11.515478,27.441573,Production,83892.28297372989,2853479.012711901,0.0294,216864404.9661045,775.5102040816328,1.9342105263157894,3.8684210526315788,5.802631578947367,7.7368421052631575,False,False,False,False,0.0,0.0,Stable
45944813,Lunsanu Mine,COD,,Open Pit,-11.115793,26.686699,Production,17262.0,416955.0,0.0414001510954419,31688580.0,550.7226277372263,2.723694151015918,5.447388302031836,8.171082453047754,10.894776604063672,False,False,False,False,2879.1,87.04084949615343,Deteriorating (>10% increase)
45944814,Lupoto Mine,COD,Somika SARL,Open Pit,-11.596085,27.267362,Production,83892.28297372989,2853479.012711901,0.0294,216864404.9661045,775.5102040816328,1.9342105263157894,3.8684210526315788,5.802631578947367,7.7368421052631575,False,False,False,False,0.0,0.0,Stable
45944816,Mabaya Mine,COD,Somika SARL,Open Pit,-12.115742,27.765241,Production,83892.28297372989,2853479.012711901,0.0294,216864404.9661045,775.5102040816328,1.9342105263157894,3.8684210526315788,5.802631578947367,7.7368421052631575,False,False,False,False,0.0,0.0,Stable
45944817,Mabende Mine,COD,China Nonferrous Metal Mining (Group) Co Ltd,Underground,-11.139619,27.452628,Production,83892.28297372989,2853479.012711901,0.0294,216864404.9661045,775.5102040816328,1.9342105263157894,3.8684210526315788,5.802631578947367,7.7368421052631575,False,False,False,False,0.0,0.0,Stable
45944818,Mandumbwila Mine,COD,,Open Pit,-10.859866,26.737567,Production,28978.0,699956.0,0.0413997451268365,53196656.0,550.7280281592932,2.7236674425550356,5.447334885110071,8.171002327665107,10.894669770220142,False,False,False,False,4643.5,78.53490234735999,Deteriorating (>10% increase)
45944819,Mashamba East Mine,COD,,Open Pit,-10.743403,25.393041,Production,206315.0,4534388.0,0.0455000763057771,344613488.0,501.0980607323752,2.993426072748493,5.986852145496986,8.98027821824548,11.973704290993972,False,False,False,False,14855.1,6.958816332455467,Slightly Deteriorating
45944820,Mashitu Mine,COD,,Open Pit,-10.666449,25.906726,Production,98742.0,2974154.0,0.0332000293192618,226035704.0,686.7463814790059,2.1842124552145976,4.368424910429195,6.5526373656437915,8.73684982085839,False,False,False,False,1218.0,9.663375573349917,Slightly Deteriorating
45944822,Metalkol RTR Operation,COD,,Underground,-10.640519,25.421365,Production,279608.0,8421941.0,0.0331999476130265,640067516.0,686.7480715859346,2.184207079804375,4.36841415960875,6.552621239413124,8.7368283192175,False,False,False,False,12059.1,18.880952380952383,Deteriorating (>10% increase)
45944825,Miniere de Kalumbwe Myunga Mine,COD,,Open Pit,-10.772926,25.909039,Production,96354.0,2327402.0,0.041399809744943,176882552.0,550.7271685659132,2.723671693746255,5.44734338749251,8.171015081238766,10.89468677498502,False,False,False,False,17887.4,96.54855883972829,Deteriorating (>10% increase)
45944826,Mirungwe Mine,COD,,Open Pit,-11.095842,26.224401,Production,83892.28297372989,2853479.012711901,0.0294,216864404.9661045,775.5102040816328,1.9342105263157894,3.8684210526315788,5.802631578947367,7.7368421052631575,False,False,False,False,0.0,0.0,Stable
45944827,Mitonte Mine,COD,,Open Pit,-11.092114,26.207062,Production,83892.28297372989,2853479.012711901,0.0294,216864404.9661045,775.5102040816328,1.9342105263157894,3.8684210526315788,5.802631578947367,7.7368421052631575,False,False,False,False,0.0,0.0,Stable
45944828,Mufunta Mine,COD,,Open Pit,-11.710481,27.619232,Production,83892.28297372989,2853479.012711901,0.0294,216864404.9661045,775.5102040816328,1.9342105263157894,3.8684210526315788,5.802631578947367,7.7368421052631575,False,False,False,False,0.0,0.0,Stable
45944830,Mukondo Mine,COD,Eurasian Resources Group SARL,Open Pit,-10.724357,26.349928,Production,83892.28297372989,2853479.012711901,0.0294,216864404.9661045,775.5102040816328,1.9342105263157894,3.8684210526315788,5.802631578947367,7.7368421052631575,False,False,False,False,0.0,0.0,Stable
45944833,Mulondo Mine,COD,,Open Pit,-10.967224,25.989786,Production,83892.28297372989,2853479.012711901,0.0294,216864404.9661045,775.5102040816328,1.9342105263157894,3.8684210526315788,5.802631578947367,7.7368421052631575,False,False,False,False,0.0,0.0,Stable
45944835,Mushima Mine,COD,,Open Pit,-11.325883,25.368731,Production,83892.28297372989,2853479.012711901,0.0294,216864404.9661045,775.5102040816328,1.9342105263157894,3.8684210526315788,5.802631578947367,7.7368421052631575,False,False,False,False,0.0,0.0,Stable
45944836,Musonoi Mine,COD,,Underground,-10.700198,25.467747,Production,83892.28297372989,2853479.012711901,0.0294,216864404.9661045,775.5102040816328,1.9342105263157894,3.8684210526315788,5.802631578947367,7.7368421052631575,False,False,False,False,0.0,0.0,Stable
45944837,Musoshi Mine,COD,,Underground,-12.270946,27.728714,Production,83892.28297372989,2853479.012711901,0.0294,216864404.9661045,775.5102040816328,1.9342105263157894,3.8684210526315788,5.802631578947367,7.7368421052631575,False,False,False,False,0.0,0.0,Stable
45944838,Mutanda Mine,COD,Glencore PLC,Open Pit,-10.785812,25.813593,Production,307075.0,6748900.0,0.0455000074086147,512916400.00000006,501.0988195066352,2.9934215400404427,5.986843080080885,8.980264620121329,11.97368616016177,False,False,False,False,108355.6,3129.9884295782053,Deteriorating (>10% increase)
45944840,Mwepu Mine,COD,,Open Pit,-11.551843,27.212394,Production,83892.28297372989,2853479.012711901,0.0294,216864404.9661045,775.5102040816328,1.9342105263157894,3.8684210526315788,5.802631578947367,7.7368421052631575,False,False,False,False,0.0,0.0,Stable
45944844,Nsase Mine,COD,,Open Pit,-11.452456,27.077507,Production,83892.28297372989,2853479.012711901,0.0294,216864404.9661045,775.5102040816328,1.9342105263157894,3.8684210526315788,5.802631578947367,7.7368421052631575,False,False,False,False,0.0,0.0,Stable
45944845,Pumpi Mine,COD,Wanbao Mining Co,Open Pit,-10.637002,25.986393,Production,215891.0,5214769.0,0.041399916276253,396322444.0,550.7257514208559,2.723678702385071,5.447357404770142,8.171036107155214,10.894714809540284,False,False,False,False,-15436.3,-10.486271778159233,Improving (>10% reduction)
45944847,Ruashi Mine,COD,Jinchuan Group International Resources Co Ltd,Open Pit,-11.623431,27.547865,Production,14070.0,1435693.0,0.0098001452956864,109112668.0,2326.496119402985,0.6447464010320049,1.2894928020640097,1.9342392030960145,2.5789856041280195,False,False,False,False,1254.6,7.0287539936102235,Slightly Deteriorating
45944850,Sabinga Mine,COD,,Open Pit,-10.952386,26.793822,Production,83892.28297372989,2853479.012711901,0.0294,216864404.9661045,775.5102040816328,1.9342105263157894,3.8684210526315788,5.802631578947367,7.7368421052631575,False,False,False,False,0.0,0.0,Stable
45944852,Shamitumba Mine,COD,,Open Pit,-10.965876,26.598719,Production,83892.28297372989,2853479.012711901,0.0294,216864404.9661045,775.5102040816328,1.9342105263157894,3.8684210526315788,5.802631578947367,7.7368421052631575,False,False,False,False,0.0,0.0,Stable
45944854,Shangalowe Mine,COD,,Open Pit,-10.808533,26.571121,Production,61393.0,1482926.0,0.0413999080196854,112702376.0,550.7258612545404,2.7236781591898294,5.447356318379659,8.171034477569487,10.894712636759317,False,False,False,False,8270.2,81.34636970520471,Deteriorating (>10% increase)
45944855,Shikiya Bintu Mine,COD,,Open Pit,-10.768616,25.668394,Production,83892.28297372989,2853479.012711901,0.0294,216864404.9661045,775.5102040816328,1.9342105263157894,3.8684210526315788,5.802631578947367,7.7368421052631575,False,False,False,False,0.0,0.0,Stable
45944857,Shinkolobwe Signal Mine,COD,,Open Pit,-11.045546,26.573138,Production,83892.28297372989,2853479.012711901,0.0294,216864404.9661045,775.5102040816328,1.9342105263157894,3.8684210526315788,5.802631578947367,7.7368421052631575,False,False,False,False,0.0,0.0,Stable
45944860,Shomberwa Mine,COD,,Open Pit,-11.041719,26.600682,Production,83892.28297372989,2853479.012711901,0.0294,216864404.9661045,775.5102040816328,1.9342105263157894,3.8684210526315788,5.802631578947367,7.7368421052631575,False,False,False,False,0.0,0.0,Stable
45944861,Sico Mine,COD,China RAILWAY Group Ltd,Open Pit,-10.729163,25.37627,Production,396978.0,9588831.0,0.0414000413606205,728751156.0,550.7240874809183,2.7236869316197696,5.447373863239539,8.171060794859308,10.894747726479078,False,False,False,False,74057.5,117.21986933254539,Deteriorating (>10% increase)
45944863,Sokoroshe I Mine,COD,,Open Pit,-11.315166,27.272573,Production,1112.64317533425,37845.00596375,0.0293999999999999,2876220.4532450004,775.5102040816328,1.934210526315789,3.868421052631578,5.802631578947367,7.736842105263156,False,False,False,False,0.0,0.0,Stable
45944864,Sokoroshe II Mine,COD,,Open Pit,-11.341229,27.341569,Production,83892.28297372989,2853479.012711901,0.0294,216864404.9661045,775.5102040816328,1.9342105263157894,3.8684210526315788,5.802631578947367,7.7368421052631575,False,False,False,False,0.0,0.0,Stable
45944865,Swambo Mine,COD,,Open Pit,-11.089149,26.241261,Production,83892.28297372989,2853479.012711901,0.0294,216864404.9661045,775.5102040816328,1.9342105263157894,3.8684210526315788,5.802631578947367,7.7368421052631575,False,False,False,False,0.0,0.0,Stable
45944867,Tenke Fungurume Mine,COD,CMOC Group Ltd,Open Pit,-10.589692,26.201597,Production,1340404.0,14199200.0,0.0943999661952786,1079139200.0,241.52551021930702,6.210524091794645,12.42104818358929,18.631572275383938,24.84209636717858,False,False,False,False,341444.9,392.3611519247723,Deteriorating (>10% increase)
45944868,Tilwezembe Mine,COD,,Open Pit,-10.800076,25.694543,Production,83892.28297372989,2853479.012711901,0.0294,216864404.9661045,775.5102040816328,1.9342105263157894,3.8684210526315788,5.802631578947367,7.7368421052631575,False,False,False,False,0.0,0.0,Stable
45944872,Yamba Yamba Mine,COD,,Open Pit,-11.02641,26.373105,Production,11248.0,271681.0,0.0414014966081544,20647756.0,550.7047297297297,2.7237826715891065,5.447565343178213,8.171348014767318,10.895130686356426,False,False,False,False,1481.6,57.77808949361762,Deteriorating (>10% increase)
45944874,Kamoa-Kakula Operation,COD,Ivanhoe Mines Ltd Zijin Mining Group Co Ltd,Underground,-10.885618,25.197363,Production,279113.0,8407019.0,0.0331999963363946,638933444.0,686.7470637340432,2.18421028528912,4.36842057057824,6.55263085586736,8.73684114115648,False,False,False,False,87140.1,1318.9781392984241,Deteriorating (>10% increase)
45944875,Mirador Mine,ECU,Minera Cruz Ltda,Open Pit,-3.581103,-78.438488,Production,82170.66375774187,5478044.250516125,0.015,416331363.0392255,1520.0,0.9868421052631579,1.9736842105263157,2.960526315789473,3.9473684210526314,False,False,False,False,494.30166684777066,-1.6602942229020572,Stable
45944876,Bisha Mine,ERI,Zijin Mining Group Co Ltd,Open Pit,15.512931,37.502963,Production,45538.99999999999,2864070.9999999995,0.0159000946554746,217669395.99999997,1433.9537275741673,1.0460588589128073,2.0921177178256145,3.1381765767384224,4.184235435651229,False,False,False,False,-8905.100000000002,-41.13822609414989,Improving (>10% reduction)
45944877,Kevitsa Mine,FIN,The Vanguard Group Inc,Open Pit,67.70414,26.961892,Production,45120.00019307146,9400000.040223222,0.0048,714400003.0569649,4750.000000000001,0.3157894736842105,0.631578947368421,0.9473684210526314,1.263157894736842,False,False,False,False,2836.900012139281,31.526016615653674,Deteriorating (>10% increase)
45944879,Pyhasalmi Mine,FIN,First Quantum Minerals Ltd,Underground,63.658593,26.041395,Production,700.0000029953463,389000.0016645568,0.0017994858611825,29564000.126506317,12670.285714285714,0.11838722770937625,0.2367744554187525,0.35516168312812885,0.473548910837505,False,False,False,False,-34.100000145916155,-28.425357873210633,Improving (>10% reduction)
45944880,Skouries Mine,GRC,,Both,40.481785,23.700551,Production,82170.66376533362,5478044.251022241,0.015,416331363.0776903,1519.9999999999998,0.986842105263158,1.973684210526316,2.9605263157894743,3.947368421052632,False,False,False,False,494.30166689343895,-1.6602942229020572,Stable
45944881,Banwas Mine,IND,Hindustan Copper Ltd,Underground,28.087282,75.822363,Production,626.0,160637.0,0.0038969851279593,12208412.0,5850.676677316294,0.256380600523639,0.512761201047278,0.7691418015709168,1.025522402094556,False,False,False,False,151.1,214.57286432160805,Deteriorating (>10% increase)
45944882,Kendadih Mine,IND,Hindustan Copper Ltd,Underground,22.590163,86.418679,Production,63.0,16222.0,0.0038836148440389,1232872.0,5870.8190476190475,0.2555009765815105,0.511001953163021,0.7665029297445314,1.022003906326042,False,False,False,False,8.0,61.53846153846154,Deteriorating (>10% increase)
45944883,Khetri Mine,IND,Hindustan Copper Ltd,Underground,28.073558,75.811785,Production,962.0,246539.0,0.0039020195587716,18736964.0,5843.1280665280665,0.25671181307708124,0.5134236261541625,0.7701354392312436,1.026847252308325,False,False,False,False,5.1,6.651884700665188,Slightly Deteriorating
45944884,Kolihan Mine,IND,Hindustan Copper Ltd,Underground,28.014903,75.77574,Production,1022.0,262001.0,0.0039007484704256,19912076.000000004,5845.032093933464,0.25662818884379507,0.5132563776875901,0.7698845665313852,1.0265127553751803,False,False,False,False,245.1,391.3461538461538,Deteriorating (>10% increase)
45944885,Malanjkhand Mine,IND,Hindustan Copper Ltd,Open Pit,22.022125,80.715666,Production,5903.0,1513594.0,0.003899989032726,115033144.0,5846.170286295103,0.2565782258372422,0.5131564516744844,0.7697346775117265,1.0263129033489689,False,False,False,False,682.8,51.94337194337194,Deteriorating (>10% increase)
45944887,Surda Mine,IND,Hindustan Copper Ltd,Underground,22.56403,86.430917,Production,516.0,132289.0,0.0039005510662262,10053964.000000002,5845.327906976745,0.25661520172540897,0.5132304034508179,0.7698456051762268,1.0264608069016359,False,False,False,False,58.0,56.838905775075986,Deteriorating (>10% increase)
45944888,Batu Hijau Mine,IDN,PT Amman Mineral Internasional Tbk,Open Pit,-8.967323,116.865235,Production,681556.0049567898,11493361.0835884,0.0592999732628253,873495442.3527185,384.48583946146766,3.9013140304490372,7.8026280608980745,11.703942091347114,15.605256121796149,False,False,False,False,-33720.70024524241,-13.493630912792506,Improving (>10% reduction)
45944889,Big Gossan Mine,IDN,FreePort-McMoran Inc,Underground,-4.092455,137.113264,Production,107266.00078011931,2883500.020970989,0.0371999306398474,219146001.59379518,612.9043685790466,2.4473638578846977,4.894727715769395,7.342091573654093,9.78945543153879,False,False,False,False,-1463.4000106429535,-5.123873375848021,Slightly Improving
45944890,Deep Mill Level Zone Mine,IDN,FreePort-McMoran Inc,Underground,-4.103814,137.103348,Production,1030570.0074950831,27703500.20148077,0.0371999927806955,2105466015.3125384,612.903344750963,2.4473679460983937,4.894735892196787,7.342103838295181,9.789471784393575,False,False,False,False,45246.80032906889,17.8708963870249,Deteriorating (>10% increase)
45944892,Grasberg Block Cave Mine,IDN,FreePort-McMoran Inc,Underground,-4.063208,137.121579,Production,1592699.0115833096,42814500.311379366,0.0371999906573707,3253902023.6648316,612.9033797346516,2.447367806405971,4.894735612811942,7.342103419217912,9.789471225623885,False,False,False,False,175010.70127280994,49.6531862514799,Deteriorating (>10% increase)
45944894,Wetar Mine,IDN,PT Merdeka Copper Gold Tbk,Open Pit,-7.707619,126.327802,Production,57193.00041595068,1579913.0114903203,0.0362000945621689,120073388.87326434,629.8326088857028,2.381585168563745,4.76317033712749,7.144755505691236,9.52634067425498,False,False,False,False,3790.300027565924,23.473661485319514,Deteriorating (>10% increase)
45944895,Chah Firozeh Mine,IRN,Mobin Mining and Road Construction Co,Open Pit,30.395962,55.017603,Production,312062.9999999999,13002605.999999994,0.0240000350698929,988198055.9999995,949.9986118187671,1.5789496756508499,3.1578993513016997,4.73684902695255,6.3157987026033995,False,False,False,False,-41805.9,-39.72243147708177,Improving (>10% reduction)
45944896,Dareh-Zar Mine,IRN,,Open Pit,29.882917,55.903303,Production,824633.9999999997,34359766.999999985,0.023999988125647,2611342291.999999,950.0004700267027,1.5789465872136235,3.157893174427246,4.736839761640868,6.315786348854492,False,False,False,False,130427.49999999993,33.53834494418048,Deteriorating (>10% increase)
45944897,Jian Mine,IRN,,Open Pit,30.451328,53.597874,Production,1156495.235700106,48187301.48750444,0.0239999999999999,3662234913.0503373,950.0000000000003,1.578947368421052,3.157894736842104,4.736842105263156,6.315789473684208,False,False,False,False,0.0,0.0,Stable
45944898,Maskani Mine,IRN,,Open Pit,33.332707,53.467683,Production,196559.99999999997,8189999.999999997,0.024,622439999.9999998,949.9999999999997,1.5789473684210527,3.157894736842106,4.736842105263159,6.315789473684212,False,False,False,False,7616.700000000014,-5.138339920948605,Slightly Improving
45944899,Miduk Mine,IRN,Government of Iran,Open Pit,30.42284,55.167459,Production,1050700.9999999995,43779203.99999999,0.0240000023755571,3327219503.9999995,949.99990596754,1.5789475247077052,3.1578950494154103,4.7368425741231155,6.315790098830821,False,False,False,False,128389.99999999996,28.059462825983356,Deteriorating (>10% increase)
45944900,Sarcheshmeh Complex,IRN,Government of Iran,Open Pit,29.947311,55.866683,Production,2601349.999999999,108389602.99999994,0.0239999956453387,8237609827.999996,950.0001723720375,1.5789470819301834,3.157894163860367,4.736841245790551,6.315788327720734,False,False,False,False,271459.4,11.694243689974035,Deteriorating (>10% increase)
45944901,Sungun Mine,IRN,Government of Iran,Open Pit,38.700061,46.702171,Production,1192793.9999999995,49699744.99999999,0.0240000024144993,3777180619.9999995,949.9999044260787,1.5789475272696911,3.1578950545393822,4.736842581809073,6.3157901090787645,False,False,False,False,-27959.400000000023,-12.837848206436794,Improving (>10% reduction)
45944902,50 Let Oktyabrya Mine,KAZ,Russian Copper Co,Both,50.481306,59.10832,Production,12917.000055272698,2306674.009870411,0.0055998376883772,175307224.75015122,4071.5465820236896,0.3684103742353481,0.7368207484706962,1.1052311227060443,1.4736414969413927,False,False,False,False,-206.60000088405542,1.309803921568617,Stable
45944903,Abyz Mine,KAZ,Kazakhmys Holding LLP,Both,49.420244,76.49566,Production,739729.0132279504,132094466.64784828,0.0056,10039179465.23647,4071.4285714285706,0.3684210526315789,0.7368421052631581,1.105263157894737,1.4736842105263162,False,False,False,False,0.0,0.0,Stable
45944904,Akchi-Spassky Mine,KAZ,,Open Pit,47.845075,67.378295,Production,739729.0132279504,132094466.64784828,0.0056,10039179465.23647,4071.4285714285706,0.3684210526315789,0.7368421052631581,1.105263157894737,1.4736842105263162,False,False,False,False,0.0,0.0,Stable
45944905,Aktogay Mine,KAZ,Nova Resources BV,Open Pit,46.957868,79.938565,Production,433054.00185306673,77331000.33090447,0.0056000051725698,5877156025.14874,4071.4248107626304,0.3684213929322277,0.7368427858644557,1.1052641787966833,1.473685571728911,False,False,False,False,48250.90020646878,57.63468258590563,Deteriorating (>10% increase)
45944907,Aralchinsky Mine,KAZ,,Underground,50.637241,59.468052,Production,739729.0132279504,132094466.64784828,0.0056,10039179465.23647,4071.4285714285706,0.3684210526315789,0.7368421052631581,1.105263157894737,1.4736842105263162,False,False,False,False,0.0,0.0,Stable
45944908,Artemyevsky Mine,KAZ,,Both,50.601258,81.783203,Production,4616.0000197521695,824363.0035275039,0.0055994749885669,62651588.2680903,4071.810311958406,0.36838651240571907,0.7367730248114381,1.105159537217157,1.4735460496228763,False,False,False,False,-533.9000022845937,-17.379631286916066,Improving (>10% reduction)
